Time (s);Altitude (m);Vertical velocity (m/s);Vertical acceleration (m/s²);Total velocity (m/s);Total acceleration (m/s²);Position East of launch (m);Position North of launch (m);Lateral distance (m);Lateral direction (°);Lateral velocity (m/s);Lateral acceleration (m/s²);Latitude (°);Longitude (°);Gravitational acceleration (m/s²);Angle of attack (°);Roll rate (°/s);Pitch rate (°/s);Yaw rate (°/s);Mass (g);Propellant mass (g);Longitudinal moment of inertia (kg·m²);Rotational moment of inertia (kg·m²);CP location (mm);CG location (mm);Stability margin calibers (?);Mach number (?);Reynolds number (?);Thrust (N);Drag force (N);Drag coefficient (?);Axial drag coefficient (?);Friction drag coefficient (?);Pressure drag coefficient (?);Base drag coefficient (?);Normal force coefficient (?);Pitch moment coefficient (?);Yaw moment coefficient (?);Side force coefficient (?);Roll moment coefficient (?);Roll forcing coefficient (?);Roll damping coefficient (?);Pitch damping coefficient (?);Coriolis acceleration (m/s²);Reference length (mm);Reference area (m²);Vertical orientation (zenith) (°);Lateral orientation (azimuth) (°);Wind velocity (m/s);Air temperature (°C);Air pressure (mbar);Speed of sound (m/s);Simulation time step (s);Computation time (s)
0;0;0;-9.3012;0;9.3411;0;0;0;0;0;0.86284;-23.364;-48;9.7864;90.161;0;0;0;9666.4;1410;6.1691;0.014993;NaN;1497.2;NaN;0.0091748;587221;3.82;0;0.86481;-4.7895e-8;0.58682;0.15798;0.12001;NaN;NaN;NaN;NaN;NaN;NaN;NaN;NaN;0;80.9;0.0051403;84.7;37;NaN;26.702;931.33;347.48;2e-3;0.0018227
2e-3;0;0;-9.3053;0;9.3452;0;0;0;0;0;0.86323;-23.364;-48;9.7864;90.161;0;0;0;9666.4;1410;6.1691;0.014993;NaN;1497.2;NaN;0.009177;587360;3.86;0;0.86478;-4.7893e-8;0.58679;0.15798;0.12001;NaN;NaN;NaN;NaN;NaN;NaN;NaN;NaN;0;80.9;0.0051403;84.7;37;NaN;26.702;931.33;347.48;2e-3;0.0031404
4e-3;0;0;-9.3012;0;9.3411;0;0;0;0;0;0.86284;-23.364;-48;9.7864;90.161;0;0;0;9666.4;1410;6.1691;0.014993;NaN;1497.2;NaN;0.0091791;587499;3.9;0;0.86475;-4.7892e-8;0.58676;0.15798;0.12001;NaN;NaN;NaN;NaN;NaN;NaN;NaN;NaN;0;80.9;0.0051403;84.7;37;NaN;26.702;931.33;347.48;2e-3;0.0035597
6e-3;0;0;-9.297;0;9.337;0;0;0;0;0;0.86246;-23.364;-48;9.7864;90.161;0;0;0;9666.4;1410;6.1691;0.014993;NaN;1497.2;NaN;0.0091813;587638;3.94;0;0.86472;-4.789e-8;0.58673;0.15798;0.12001;NaN;NaN;NaN;NaN;NaN;NaN;NaN;NaN;0;80.9;0.0051403;84.7;37;NaN;26.702;931.33;347.48;2e-3;0.0037424
8e-3;0;0;-9.2929;0;9.3328;0;0;0;0;0;0.86208;-23.364;-48;9.7864;90.161;0;0;0;9666.4;1410;6.1691;0.014993;NaN;1497.2;NaN;0.0091835;587778;3.98;0;0.86469;-4.7888e-8;0.5867;0.15798;0.12001;NaN;NaN;NaN;NaN;NaN;NaN;NaN;NaN;0;80.9;0.0051403;84.7;37;NaN;26.702;931.33;347.48;2e-3;0.0039069
0.01;0;0;-9.2888;0;9.3287;0;0;0;0;0;0.8617;-23.364;-48;9.7864;90.161;0;0;0;9666.4;1410;6.1691;0.014993;NaN;1497.2;NaN;0.0091857;587917;4.02;0;0.86466;-4.7887e-8;0.58668;0.15798;0.12001;NaN;NaN;NaN;NaN;NaN;NaN;NaN;NaN;0;80.9;0.0051403;84.7;37;NaN;26.702;931.33;347.48;2e-3;0.0040747
0.012;0;0;-9.2847;0;9.3245;0;0;0;0;0;0.86131;-23.364;-48;9.7864;90.161;0;0;0;9666.4;1410;6.1691;0.014993;NaN;1497.2;NaN;0.0091878;588056;4.06;0;0.86463;-4.7885e-8;0.58665;0.15798;0.12001;NaN;NaN;NaN;NaN;NaN;NaN;NaN;NaN;0;80.9;0.0051403;84.7;37;NaN;26.702;931.33;347.48;2e-3;0.0042628
0.014;0;0;-9.2806;0;9.3204;0;0;0;0;0;0.86093;-23.364;-48;9.7864;90.161;0;0;0;9666.4;1409.9;6.1691;0.014993;NaN;1497.2;NaN;0.00919;588195;4.1;0;0.86461;-4.7883e-8;0.58662;0.15798;0.12001;NaN;NaN;NaN;NaN;NaN;NaN;NaN;NaN;0;80.9;0.0051403;84.7;37;NaN;26.702;931.33;347.48;2e-3;0.0044346
0.016;0;0;-9.2764;0;9.3163;0;0;0;0;0;0.86055;-23.364;-48;9.7864;90.161;0;0;0;9666.4;1409.9;6.1691;0.014993;NaN;1497.2;NaN;0.0091922;588334;4.14;0;0.86458;-4.7882e-8;0.58659;0.15798;0.12001;NaN;NaN;NaN;NaN;NaN;NaN;NaN;NaN;0;80.9;0.0051403;84.7;37;NaN;26.702;931.33;347.48;2e-3;0.0046677
0.018;0;0;-9.2723;0;9.3121;0;0;0;0;0;0.86017;-23.364;-48;9.7864;90.161;0;0;0;9666.4;1409.9;6.1691;0.014993;NaN;1497.2;NaN;0.0091944;588473;4.18;0;0.86455;-4.788e-8;0.58656;0.15798;0.12001;NaN;NaN;NaN;NaN;NaN;NaN;NaN;NaN;0;80.9;0.0051403;84.7;37;NaN;26.702;931.33;347.48;2e-3;0.0048698
0.02;0;0;-9.2682;0;9.308;0;0;0;0;0;0.85978;-23.364;-48;9.7864;90.161;0;0;0;9666.4;1409.9;6.1691;0.014993;NaN;1497.2;NaN;0.0091965;588612;4.22;0;0.86452;-4.7879e-8;0.58653;0.15798;0.12001;NaN;NaN;NaN;NaN;NaN;NaN;NaN;NaN;0;80.9;0.0051403;84.7;37;NaN;26.702;931.33;347.48;2e-3;0.0051935
0.022;0;0;-9.2654;0;9.3052;0;0;0;0;0;0.85953;-23.364;-48;9.7864;90.161;0;0;0;9666.4;1409.9;6.1691;0.014993;NaN;1497.2;NaN;0.0091987;588751;4.247;0;0.86449;-4.7877e-8;0.5865;0.15798;0.12001;NaN;NaN;NaN;NaN;NaN;NaN;NaN;NaN;0;80.9;0.0051403;84.7;37;NaN;26.702;931.33;347.48;2e-3;0.005466
0.024;0;0;-9.264;0;9.3038;0;0;0;0;0;0.85939;-23.364;-48;9.7864;90.161;0;0;0;9666.3;1409.9;6.1691;0.014993;NaN;1497.2;NaN;0.0092009;588891;4.2609;0;0.86446;-4.7875e-8;0.58647;0.15798;0.12001;NaN;NaN;NaN;NaN;NaN;NaN;NaN;NaN;0;80.9;0.0051403;84.7;37;NaN;26.702;931.33;347.48;2e-3;0.0057984
0.026;0;0;-9.2626;0;9.3023;0;0;0;0;0;0.85926;-23.364;-48;9.7864;90.161;0;0;0;9666.3;1409.9;6.1691;0.014993;NaN;1497.2;NaN;0.009203;589030;4.2748;0;0.86443;-4.7874e-8;0.58644;0.15798;0.12001;NaN;NaN;NaN;NaN;NaN;NaN;NaN;NaN;0;80.9;0.0051403;84.7;37;NaN;26.702;931.33;347.48;2e-3;0.0061012
0.028;0;0;-9.2611;0;9.3009;0;0;0;0;0;0.85913;-23.364;-48;9.7864;90.161;0;0;0;9666.3;1409.9;6.1691;0.014993;NaN;1497.2;NaN;0.0092052;589169;4.2887;0;0.8644;-4.7872e-8;0.58641;0.15798;0.12001;NaN;NaN;NaN;NaN;NaN;NaN;NaN;NaN;0;80.9;0.0051403;84.7;37;NaN;26.702;931.33;347.48;2e-3;0.0064618
0.03;0;0;-9.2597;0;9.2994;0;0;0;0;0;0.859;-23.364;-48;9.7864;90.161;0;0;0;9666.3;1409.9;6.1691;0.014993;NaN;1497.2;NaN;0.0092074;589308;4.3026;0;0.86437;-4.7871e-8;0.58639;0.15798;0.12001;NaN;NaN;NaN;NaN;NaN;NaN;NaN;NaN;0;80.9;0.0051403;84.7;37;NaN;26.702;931.33;347.48;2e-3;0.0067235
0.032;0;0;-9.2583;0;9.298;0;0;0;0;0;0.85886;-23.364;-48;9.7864;90.161;0;0;0;9666.3;1409.9;6.1691;0.014993;NaN;1497.2;NaN;0.0092096;589447;4.3165;0;0.86434;-4.7869e-8;0.58636;0.15798;0.12001;NaN;NaN;NaN;NaN;NaN;NaN;NaN;NaN;0;80.9;0.0051403;84.7;37;NaN;26.702;931.33;347.48;2e-3;0.0071154
0.034;0;0;-9.2568;0;9.2966;0;0;0;0;0;0.85873;-23.364;-48;9.7864;90.161;0;0;0;9666.3;1409.9;6.169;0.014993;NaN;1497.2;NaN;0.0092117;589586;4.3304;0;0.86432;-4.7867e-8;0.58633;0.15798;0.12001;NaN;NaN;NaN;NaN;NaN;NaN;NaN;NaN;0;80.9;0.0051403;84.7;37;NaN;26.702;931.33;347.48;2e-3;0.0073903
0.036;0;0;-9.2554;0;9.2951;0;0;0;0;0;0.8586;-23.364;-48;9.7864;90.161;0;0;0;9666.3;1409.9;6.169;0.014993;NaN;1497.2;NaN;0.0092139;589725;4.3443;0;0.86429;-4.7866e-8;0.5863;0.15798;0.12001;NaN;NaN;NaN;NaN;NaN;NaN;NaN;NaN;0;80.9;0.0051403;84.7;37;NaN;26.702;931.33;347.48;2e-3;0.0079884
0.038;0;0;-9.254;0;9.2937;0;0;0;0;0;0.85846;-23.364;-48;9.7864;90.161;0;0;0;9666.3;1409.8;6.169;0.014993;NaN;1497.2;NaN;0.0092161;589864;4.3583;0;0.86426;-4.7864e-8;0.58627;0.15798;0.12001;NaN;NaN;NaN;NaN;NaN;NaN;NaN;NaN;0;80.9;0.0051403;84.7;37;NaN;26.702;931.33;347.48;2e-3;0.0084144
0.04;0;0;-9.2525;0;9.2922;0;0;0;0;0;0.85833;-23.364;-48;9.7864;90.161;0;0;0;9666.3;1409.8;6.169;0.014993;NaN;1497.2;NaN;0.0092183;5.9e5;4.3722;0;0.86423;-4.7863e-8;0.58624;0.15798;0.12001;NaN;NaN;NaN;NaN;NaN;NaN;NaN;NaN;0;80.9;0.0051403;84.7;37;NaN;26.702;931.33;347.48;2e-3;0.0088428
0.042;0;0;-9.2511;0;9.2908;0;0;0;0;0;0.8582;-23.364;-48;9.7864;90.161;0;0;0;9666.3;1409.8;6.169;0.014993;NaN;1497.2;NaN;0.0092204;590143;4.3861;0;0.8642;-4.7861e-8;0.58621;0.15798;0.12001;NaN;NaN;NaN;NaN;NaN;NaN;NaN;NaN;0;80.9;0.0051403;84.7;37;NaN;26.702;931.33;347.48;2e-3;0.0091941
0.044;0;0;-9.2499;0;9.2896;0;0;0;0;0;0.85809;-23.364;-48;9.7864;90.161;0;0;0;9666.3;1409.8;6.169;0.014993;NaN;1497.2;NaN;0.0092226;590282;4.3978;0;0.86417;-4.7859e-8;0.58618;0.15798;0.12001;NaN;NaN;NaN;NaN;NaN;NaN;NaN;NaN;0;80.9;0.0051403;84.7;37;NaN;26.702;931.33;347.48;2e-3;0.0096691
0.046;0;0;-9.25;0;9.2898;0;0;0;0;0;0.8581;-23.364;-48;9.7864;90.161;0;0;0;9666.3;1409.8;6.169;0.014993;NaN;1497.2;NaN;0.0092248;590421;4.3962;0;0.86414;-4.7858e-8;0.58615;0.15798;0.12001;NaN;NaN;NaN;NaN;NaN;NaN;NaN;NaN;0;80.9;0.0051403;84.7;37;NaN;26.702;931.33;347.48;2e-3;0.010037
0.048;0;0;-9.2504;0;9.2902;0;0;0;0;0;0.85814;-23.364;-48;9.7864;90.161;0;0;0;9666.2;1409.8;6.169;0.014993;NaN;1497.2;NaN;0.009227;590560;4.3924;0;0.86411;-4.7856e-8;0.58613;0.15798;0.12001;NaN;NaN;NaN;NaN;NaN;NaN;NaN;NaN;0;80.9;0.0051403;84.7;37;NaN;26.702;931.33;347.48;2e-3;0.01039
0.05;0;0;-9.2508;0;9.2905;0;0;0;0;0;0.85817;-23.364;-48;9.7864;90.161;0;0;0;9666.2;1409.8;6.169;0.014993;NaN;1497.2;NaN;0.0092291;590699;4.3886;0;0.86408;-4.7855e-8;0.5861;0.15798;0.12001;NaN;NaN;NaN;NaN;NaN;NaN;NaN;NaN;0;80.9;0.0051403;84.7;37;NaN;26.702;931.33;347.48;2e-3;0.010734
0.052;0;0;-9.2512;0;9.2909;0;0;0;0;0;0.85821;-23.364;-48;9.7864;90.161;0;0;0;9666.2;1409.8;6.169;0.014993;NaN;1497.2;NaN;0.009213;589665;4.3848;0;0.8643;-4.7866e-8;0.58631;0.15798;0.12001;NaN;NaN;NaN;NaN;NaN;NaN;NaN;NaN;0;80.9;0.0051403;84.7;37;NaN;26.702;931.33;347.48;2e-3;0.011104
0.054;0;0;-9.2516;0;9.2913;0;0;0;0;0;0.85825;-23.364;-48;9.7864;90.161;0;0;0;9666.2;1409.8;6.169;0.014993;NaN;1497.2;NaN;0.0091968;588630;4.381;0;0.86451;-4.7878e-8;0.58653;0.15798;0.12001;NaN;NaN;NaN;NaN;NaN;NaN;NaN;NaN;0;80.9;0.0051403;84.7;37;NaN;26.702;931.33;347.48;2e-3;0.011421
0.056;0;0;-9.252;0;9.2917;0;0;0;0;0;0.85828;-23.364;-48;9.7864;90.161;0;0;0;9666.2;1409.8;6.169;0.014993;NaN;1497.2;NaN;0.0091806;587596;4.3771;0;0.86473;-4.789e-8;0.58674;0.15798;0.12001;NaN;NaN;NaN;NaN;NaN;NaN;NaN;NaN;0;80.9;0.0051403;84.7;37;NaN;26.702;931.33;347.48;2e-3;0.011706
0.058;0;0;-9.2524;0;9.2921;0;0;0;0;0;0.85832;-23.364;-48;9.7864;90.161;0;0;0;9666.2;1409.8;6.169;0.014993;NaN;1497.2;NaN;0.0091645;586561;4.3733;0;0.86495;-4.7902e-8;0.58696;0.15798;0.12001;NaN;NaN;NaN;NaN;NaN;NaN;NaN;NaN;0;80.9;0.0051403;84.7;37;NaN;26.702;931.33;347.48;2e-3;0.011885
0.06;0;0;-9.2528;0;9.2925;0;0;0;0;0;0.85836;-23.364;-48;9.7864;90.161;0;0;0;9666.2;1409.8;6.169;0.014993;NaN;1497.2;NaN;0.0091483;585527;4.3695;0;0.86516;-4.7914e-8;0.58718;0.15798;0.12001;NaN;NaN;NaN;NaN;NaN;NaN;NaN;NaN;0;80.9;0.0051403;84.7;37;NaN;26.702;931.33;347.48;2e-3;0.012062
0.062;0;0;-9.2532;0;9.2929;0;0;0;0;0;0.85839;-23.364;-48;9.7864;90.161;0;0;0;9666.2;1409.7;6.169;0.014993;NaN;1497.2;NaN;0.0091322;584492;4.3657;0;0.86538;-4.7926e-8;0.58739;0.15798;0.12001;NaN;NaN;NaN;NaN;NaN;NaN;NaN;NaN;0;80.9;0.0051403;84.7;37;NaN;26.702;931.33;347.48;2e-3;0.012225
0.064;0;0;-9.2536;0;9.2933;0;0;0;0;0;0.85843;-23.364;-48;9.7864;90.161;0;0;0;9666.2;1409.7;6.169;0.014993;NaN;1497.2;NaN;0.009116;583458;4.3619;0;0.8656;-4.7939e-8;0.58761;0.15798;0.12001;NaN;NaN;NaN;NaN;NaN;NaN;NaN;NaN;0;80.9;0.0051403;84.7;37;NaN;26.702;931.33;347.48;2e-3;0.012391
0.066;0;0;-9.2534;0;9.2931;0;0;0;0;0;0.85841;-23.364;-48;9.7864;90.161;0;0;0;9666.2;1409.7;6.169;0.014993;NaN;1497.2;NaN;0.0090998;582423;4.3639;0;0.86582;-4.7951e-8;0.58783;0.15798;0.12001;NaN;NaN;NaN;NaN;NaN;NaN;NaN;NaN;0;80.9;0.0051403;84.7;37;NaN;26.702;931.33;347.48;2e-3;0.012615
0.068;0;0;-9.2526;0;9.2923;0;0;0;0;0;0.85833;-23.364;-48;9.7864;90.161;0;0;0;9666.2;1409.7;6.169;0.014993;NaN;1497.2;NaN;0.0090837;581389;4.3717;0;0.86604;-4.7963e-8;0.58805;0.15798;0.12001;NaN;NaN;NaN;NaN;NaN;NaN;NaN;NaN;0;80.9;0.0051403;84.7;37;NaN;26.702;931.33;347.48;2e-3;0.013018
0.07;0;0;-9.2518;0;9.2915;0;0;0;0;0;0.85826;-23.364;-48;9.7864;90.161;0;0;0;9666.1;1409.7;6.169;0.014993;NaN;1497.2;NaN;0.0090675;580354;4.3796;0;0.86626;-4.7975e-8;0.58827;0.15798;0.12001;NaN;NaN;NaN;NaN;NaN;NaN;NaN;NaN;0;80.9;0.0051403;84.7;37;NaN;26.702;931.33;347.48;2e-3;0.013519
0.072;0;0;-9.2509;0;9.2907;0;0;0;0;0;0.85818;-23.364;-48;9.7864;90.161;0;0;0;9666.1;1409.7;6.169;0.014993;NaN;1497.2;NaN;0.0090513;579320;4.3874;0;0.86648;-4.7987e-8;0.58849;0.15798;0.12001;NaN;NaN;NaN;NaN;NaN;NaN;NaN;NaN;0;80.9;0.0051403;84.7;37;NaN;26.702;931.33;347.48;2e-3;0.013912
0.074;0;0;-9.2501;0;9.2899;0;0;0;0;0;0.85811;-23.364;-48;9.7864;90.161;0;0;0;9666.1;1409.7;6.169;0.014993;NaN;1497.2;NaN;0.0090352;578285;4.3952;0;0.8667;-4.7999e-8;0.58871;0.15798;0.12001;NaN;NaN;NaN;NaN;NaN;NaN;NaN;NaN;0;80.9;0.0051403;84.7;37;NaN;26.702;931.33;347.48;2e-3;0.01449
0.076;0;0;-9.2493;0;9.289;0;0;0;0;0;0.85803;-23.364;-48;9.7864;90.161;0;0;0;9666.1;1409.7;6.169;0.014993;NaN;1497.2;NaN;0.009019;577251;4.403;0;0.86692;-4.8012e-8;0.58893;0.15798;0.12001;NaN;NaN;NaN;NaN;NaN;NaN;NaN;NaN;0;80.9;0.0051403;84.7;37;NaN;26.702;931.33;347.48;2e-3;0.014966
0.078;0;0;-9.2485;0;9.2882;0;0;0;0;0;0.85796;-23.364;-48;9.7864;90.161;0;0;0;9666.1;1409.7;6.169;0.014993;NaN;1497.2;NaN;0.0090028;576216;4.4109;0;0.86714;-4.8024e-8;0.58915;0.15798;0.12001;NaN;NaN;NaN;NaN;NaN;NaN;NaN;NaN;0;80.9;0.0051403;84.7;37;NaN;26.702;931.33;347.48;2e-3;0.015402
0.08;0;0;-9.2477;0;9.2874;0;0;0;0;0;0.85789;-23.364;-48;9.7864;90.161;0;0;0;9666.1;1409.7;6.169;0.014993;NaN;1497.2;NaN;0.0089867;575182;4.4187;0;0.86736;-4.8036e-8;0.58938;0.15798;0.12001;NaN;NaN;NaN;NaN;NaN;NaN;NaN;NaN;0;80.9;0.0051403;84.7;37;NaN;26.702;931.33;347.48;2e-3;0.015847
0.082;0;0;-9.2469;0;9.2866;0;0;0;0;0;0.85781;-23.364;-48;9.7864;90.161;0;0;0;9666.1;1409.7;6.169;0.014993;NaN;1497.2;NaN;0.0089705;574147;4.4265;0;0.86759;-4.8048e-8;0.5896;0.15798;0.12001;NaN;NaN;NaN;NaN;NaN;NaN;NaN;NaN;0;80.9;0.0051403;84.7;37;NaN;26.702;931.33;347.48;2e-3;0.016286
0.084;0;0;-9.2461;0;9.2858;0;0;0;0;0;0.85774;-23.364;-48;9.7864;90.161;0;0;0;9666.1;1409.6;6.169;0.014993;NaN;1497.2;NaN;0.0089544;573113;4.4343;0;0.86781;-4.8061e-8;0.58982;0.15798;0.12001;NaN;NaN;NaN;NaN;NaN;NaN;NaN;NaN;0;80.9;0.0051403;84.7;37;NaN;26.702;931.33;347.48;2e-3;0.016721
0.086;0;0;-9.2453;0;9.285;0;0;0;0;0;0.85766;-23.364;-48;9.7864;90.161;0;0;0;9666.1;1409.6;6.169;0.014993;NaN;1497.2;NaN;0.0089382;572078;4.4422;0;0.86803;-4.8073e-8;0.59005;0.15798;0.12001;NaN;NaN;NaN;NaN;NaN;NaN;NaN;NaN;0;80.9;0.0051403;84.7;37;NaN;26.702;931.33;347.48;2e-3;0.017159
0.088;0;0;-9.246;0;9.2857;0;0;0;0;0;0.85772;-23.364;-48;9.7864;90.161;0;0;0;9666.1;1409.6;6.169;0.014993;NaN;1497.2;NaN;0.008922;571044;4.4356;0;0.86826;-4.8086e-8;0.59027;0.15798;0.12001;NaN;NaN;NaN;NaN;NaN;NaN;NaN;NaN;0;80.9;0.0051403;84.7;37;NaN;26.702;931.33;347.48;2e-3;0.0176
0.09;0;0;-9.2555;0;9.2953;0;0;0;0;0;0.85861;-23.364;-48;9.7864;90.161;0;0;0;9666.1;1409.6;6.169;0.014993;NaN;1497.2;NaN;0.0089059;570009;4.3427;0;0.86848;-4.8098e-8;0.59049;0.15798;0.12001;NaN;NaN;NaN;NaN;NaN;NaN;NaN;NaN;0;80.9;0.0051403;84.7;37;NaN;26.702;931.33;347.48;2e-3;0.017992
0.092;0;0;-9.2666;0;9.3064;0;0;0;0;0;0.85964;-23.364;-48;9.7864;90.161;0;0;0;9666.1;1409.6;6.169;0.014993;NaN;1497.2;NaN;0.0088897;568975;4.2355;0;0.86871;-4.8111e-8;0.59072;0.15798;0.12001;NaN;NaN;NaN;NaN;NaN;NaN;NaN;NaN;0;80.9;0.0051403;84.7;37;NaN;26.702;931.33;347.48;2e-3;0.01845
0.094;0;0;-9.2776;0;9.3175;0;0;0;0;0;0.86066;-23.364;-48;9.7864;90.161;0;0;0;9666;1409.6;6.169;0.014993;NaN;1497.2;NaN;0.0088735;567940;4.1282;0;0.86893;-4.8123e-8;0.59095;0.15798;0.12001;NaN;NaN;NaN;NaN;NaN;NaN;NaN;NaN;0;80.9;0.0051403;84.7;37;NaN;26.702;931.33;347.48;2e-3;0.018891
0.096;0;0;-9.2887;0;9.3286;0;0;0;0;0;0.86169;-23.364;-48;9.7864;90.161;0;0;0;9666;1409.6;6.169;0.014993;NaN;1497.2;NaN;0.0088574;566906;4.0209;0;0.86916;-4.8136e-8;0.59117;0.15798;0.12001;NaN;NaN;NaN;NaN;NaN;NaN;NaN;NaN;0;80.9;0.0051403;84.7;37;NaN;26.702;931.33;347.48;2e-3;0.01933
0.098;0;0;-9.2997;0;9.3397;0;0;0;0;0;0.86271;-23.364;-48;9.7864;90.161;0;0;0;9666;1409.6;6.1689;0.014993;NaN;1497.2;NaN;0.0088412;565871;3.9136;0;0.86939;-4.8148e-8;0.5914;0.15798;0.12001;NaN;NaN;NaN;NaN;NaN;NaN;NaN;NaN;0;80.9;0.0051403;84.7;37;NaN;26.702;931.33;347.48;2e-3;0.019768
0.1;0;0;-9.3108;0;9.3508;0;0;0;0;0;0.86374;-23.364;-48;9.7864;90.161;0;0;0;9666;1409.6;6.1689;0.014993;NaN;1497.2;NaN;0.0088251;564837;3.8064;0;0.86961;-4.8161e-8;0.59163;0.15798;0.12001;NaN;NaN;NaN;NaN;NaN;NaN;NaN;NaN;0;80.9;0.0051403;84.7;37;NaN;26.702;931.33;347.48;2e-3;0.020213
0.102;0;0;-9.3218;0;9.3619;0;0;0;0;0;0.86476;-23.364;-48;9.7864;90.161;0;0;0;9666;1409.6;6.1689;0.014993;NaN;1497.2;NaN;0.0088249;564824;3.6991;0;0.86962;-4.8161e-8;0.59163;0.15798;0.12001;NaN;NaN;NaN;NaN;NaN;NaN;NaN;NaN;0;80.9;0.0051403;84.7;37;NaN;26.702;931.33;347.48;2e-3;0.02067
0.104;0;0;-9.3329;0;9.373;0;0;0;0;0;0.86579;-23.364;-48;9.7864;90.161;0;0;0;9666;1409.6;6.1689;0.014993;NaN;1497.2;NaN;0.0088247;564812;3.5918;0;0.86962;-4.8161e-8;0.59163;0.15798;0.12001;NaN;NaN;NaN;NaN;NaN;NaN;NaN;NaN;0;80.9;0.0051403;84.7;37;NaN;26.702;931.33;347.48;2e-3;0.021172
0.106;0;0;-9.3439;0;9.3841;0;0;0;0;0;0.86681;-23.364;-48;9.7864;90.161;0;0;0;9666;1409.6;6.1689;0.014993;NaN;1497.2;NaN;0.0088245;564799;3.4845;0;0.86962;-4.8161e-8;0.59164;0.15798;0.12001;NaN;NaN;NaN;NaN;NaN;NaN;NaN;NaN;0;80.9;0.0051403;84.7;37;NaN;26.702;931.33;347.48;2e-3;0.021596
0.108;0;0;-9.355;0;9.3952;0;0;0;0;0;0.86784;-23.364;-48;9.7864;90.161;0;0;0;9666;1409.6;6.1689;0.014993;NaN;1497.2;NaN;0.0088243;564786;3.3773;0;0.86963;-4.8161e-8;0.59164;0.15798;0.12001;NaN;NaN;NaN;NaN;NaN;NaN;NaN;NaN;0;80.9;0.0051403;84.7;37;NaN;26.702;931.33;347.48;2e-3;0.021999
0.11;0;0;-9.3639;0;9.4041;0;0;0;0;0;0.86866;-23.364;-48;9.7864;90.161;0;0;0;9666;1409.5;6.1689;0.014993;NaN;1497.2;NaN;0.0088241;564774;3.2912;0;0.86963;-4.8162e-8;0.59164;0.15798;0.12001;NaN;NaN;NaN;NaN;NaN;NaN;NaN;NaN;0;80.9;0.0051403;84.7;37;NaN;26.702;931.33;347.48;2e-3;0.022626
0.112;0;0;-9.3596;0;9.3998;0;0;0;0;0;0.86826;-23.364;-48;9.7864;90.161;0;0;0;9666;1409.5;6.1689;0.014993;NaN;1497.2;NaN;0.0088239;564761;3.3327;0;0.86963;-4.8162e-8;0.59164;0.15798;0.12001;NaN;NaN;NaN;NaN;NaN;NaN;NaN;NaN;0;80.9;0.0051403;84.7;37;NaN;26.702;931.33;347.48;2e-3;0.023411
0.114;0;0;-9.3531;0;9.3933;0;0;0;0;0;0.86766;-23.364;-48;9.7864;90.161;0;0;0;9666;1409.5;6.1689;0.014993;NaN;1497.2;NaN;0.0088237;564748;3.3955;0;0.86963;-4.8162e-8;0.59165;0.15798;0.12001;NaN;NaN;NaN;NaN;NaN;NaN;NaN;NaN;0;80.9;0.0051403;84.7;37;NaN;26.702;931.33;347.48;2e-3;0.023681
0.116;0;0;-9.3467;0;9.3868;0;0;0;0;0;0.86706;-23.364;-48;9.7864;90.161;0;0;0;9666;1409.5;6.1689;0.014993;NaN;1497.2;NaN;0.0088235;564736;3.4582;0;0.86964;-4.8162e-8;0.59165;0.15798;0.12001;NaN;NaN;NaN;NaN;NaN;NaN;NaN;NaN;0;80.9;0.0051403;84.7;37;NaN;26.702;931.33;347.48;2e-3;0.023934
0.118;0;0;-9.3402;0;9.3803;0;0;0;0;0;0.86646;-23.364;-48;9.7864;90.161;0;0;0;9666;1409.5;6.1689;0.014993;NaN;1497.2;NaN;0.0088233;564723;3.5209;0;0.86964;-4.8162e-8;0.59165;0.15798;0.12001;NaN;NaN;NaN;NaN;NaN;NaN;NaN;NaN;0;80.9;0.0051403;84.7;37;NaN;26.702;931.33;347.48;2e-3;0.02417
0.12;0;0;-9.3337;0;9.3738;0;0;0;0;0;0.86586;-23.364;-48;9.7864;90.161;0;0;0;9665.9;1409.5;6.1689;0.014993;NaN;1497.2;NaN;0.0088231;564710;3.5836;0;0.86964;-4.8162e-8;0.59166;0.15798;0.12001;NaN;NaN;NaN;NaN;NaN;NaN;NaN;NaN;0;80.9;0.0051403;84.7;37;NaN;26.702;931.33;347.48;2e-3;0.024798
0.122;0;0;-9.3273;0;9.3673;0;0;0;0;0;0.86527;-23.364;-48;9.7864;90.161;0;0;0;9665.9;1409.5;6.1689;0.014993;NaN;1497.2;NaN;0.0088229;564698;3.6464;0;0.86964;-4.8163e-8;0.59166;0.15798;0.12001;NaN;NaN;NaN;NaN;NaN;NaN;NaN;NaN;0;80.9;0.0051403;84.7;37;NaN;26.702;931.33;347.48;2e-3;0.025288
0.124;0;0;-9.3208;0;9.3608;0;0;0;0;0;0.86467;-23.364;-48;9.7864;90.161;0;0;0;9665.9;1409.5;6.1689;0.014993;NaN;1497.2;NaN;0.0088227;564685;3.7091;0;0.86965;-4.8163e-8;0.59166;0.15798;0.12001;NaN;NaN;NaN;NaN;NaN;NaN;NaN;NaN;0;80.9;0.0051403;84.7;37;NaN;26.702;931.33;347.48;2e-3;0.02591
0.126;0;0;-9.3143;0;9.3543;0;0;0;0;0;0.86407;-23.364;-48;9.7864;90.161;0;0;0;9665.9;1409.5;6.1689;0.014993;NaN;1497.2;NaN;0.0088225;564672;3.7718;0;0.86965;-4.8163e-8;0.59166;0.15798;0.12001;NaN;NaN;NaN;NaN;NaN;NaN;NaN;NaN;0;80.9;0.0051403;84.7;37;NaN;26.702;931.33;347.48;2e-3;0.026137
0.128;0;0;-9.3079;0;9.3479;0;0;0;0;0;0.86347;-23.364;-48;9.7864;90.161;0;0;0;9665.9;1409.5;6.1689;0.014993;NaN;1497.2;NaN;0.0088223;564660;3.8345;0;0.86965;-4.8163e-8;0.59167;0.15798;0.12001;NaN;NaN;NaN;NaN;NaN;NaN;NaN;NaN;0;80.9;0.0051403;84.7;37;NaN;26.702;931.33;347.48;2e-3;0.026352
0.13;0;0;-9.3014;0;9.3414;0;0;0;0;0;0.86287;-23.364;-48;9.7864;90.161;0;0;0;9665.9;1409.5;6.1689;0.014993;NaN;1497.2;NaN;0.0088221;564647;3.8973;0;0.86966;-4.8163e-8;0.59167;0.15798;0.12001;NaN;NaN;NaN;NaN;NaN;NaN;NaN;NaN;0;80.9;0.0051403;84.7;37;NaN;26.702;931.33;347.48;2e-3;0.026565
0.132;0;0;-9.2941;0;9.334;0;0;0;0;0;0.86219;-23.364;-48;9.7864;90.161;0;0;0;9665.9;1409.5;6.1689;0.014993;NaN;1497.2;NaN;0.0088219;564634;3.9684;0;0.86966;-4.8163e-8;0.59167;0.15798;0.12001;NaN;NaN;NaN;NaN;NaN;NaN;NaN;NaN;0;80.9;0.0051403;84.7;37;NaN;26.702;931.33;347.48;2e-3;0.026776
0.134;0;0;-9.2816;0;9.3214;0;0;0;0;0;0.86103;-23.364;-48;9.7864;90.161;0;0;0;9665.9;1409.5;6.1689;0.014993;NaN;1497.2;NaN;0.0088217;564622;4.09;0;0.86966;-4.8163e-8;0.59167;0.15798;0.12001;NaN;NaN;NaN;NaN;NaN;NaN;NaN;NaN;0;80.9;0.0051403;84.7;37;NaN;26.702;931.33;347.48;2e-3;0.027
0.136;0;0;-9.2682;0;9.308;0;0;0;0;0;0.85978;-23.364;-48;9.7864;90.161;0;0;0;9665.9;1409.4;6.1689;0.014993;NaN;1497.2;NaN;0.0088215;564609;4.22;0;0.86966;-4.8164e-8;0.59168;0.15798;0.12001;NaN;NaN;NaN;NaN;NaN;NaN;NaN;NaN;0;80.9;0.0051403;84.7;37;NaN;26.702;931.33;347.48;2e-3;0.02721
0.138;0;0;-9.2548;0;9.2945;0;0;0;0;0;0.85854;-23.364;-48;9.7864;90.161;0;0;0;9665.9;1409.4;6.1689;0.014993;NaN;1497.2;NaN;0.0088213;564596;4.35;0;0.86967;-4.8164e-8;0.59168;0.15798;0.12001;NaN;NaN;NaN;NaN;NaN;NaN;NaN;NaN;0;80.9;0.0051403;84.7;37;NaN;26.702;931.33;347.48;2e-3;0.027419
0.14;0;0;-9.2414;0;9.2811;0;0;0;0;0;0.8573;-23.364;-48;9.7864;90.161;0;0;0;9665.9;1409.4;6.1689;0.014993;NaN;1497.2;NaN;0.0088211;564584;4.48;0;0.86967;-4.8164e-8;0.59168;0.15798;0.12001;NaN;NaN;NaN;NaN;NaN;NaN;NaN;NaN;0;80.9;0.0051403;84.7;37;NaN;26.702;931.33;347.48;2e-3;0.027629
0.142;0;0;-9.228;0;9.2676;0;0;0;0;0;0.85606;-23.364;-48;9.7864;90.161;0;0;0;9665.9;1409.4;6.1689;0.014993;NaN;1497.2;NaN;0.0088209;564571;4.61;0;0.86967;-4.8164e-8;0.59169;0.15798;0.12001;NaN;NaN;NaN;NaN;NaN;NaN;NaN;NaN;0;80.9;0.0051403;84.7;37;NaN;26.702;931.33;347.48;2e-3;0.027839
0.144;0;0;-9.2146;0;9.2542;0;0;0;0;0;0.85481;-23.364;-48;9.7864;90.161;0;0;0;9665.8;1409.4;6.1689;0.014993;NaN;1497.2;NaN;0.0088207;564559;4.74;0;0.86968;-4.8164e-8;0.59169;0.15798;0.12001;NaN;NaN;NaN;NaN;NaN;NaN;NaN;NaN;0;80.9;0.0051403;84.7;37;NaN;26.702;931.33;347.48;2e-3;0.028049
0.146;0;0;-9.2012;0;9.2407;0;0;0;0;0;0.85357;-23.364;-48;9.7864;90.161;0;0;0;9665.8;1409.4;6.1689;0.014993;NaN;1497.2;NaN;0.0088205;564546;4.87;0;0.86968;-4.8164e-8;0.59169;0.15798;0.12001;NaN;NaN;NaN;NaN;NaN;NaN;NaN;NaN;0;80.9;0.0051403;84.7;37;NaN;26.702;931.33;347.48;2e-3;0.028264
0.148;0;0;-9.1878;0;9.2273;0;0;0;0;0;0.85233;-23.364;-48;9.7864;90.161;0;0;0;9665.8;1409.4;6.1689;0.014993;NaN;1497.2;NaN;0.0088203;564533;5;0;0.86968;-4.8165e-8;0.59169;0.15798;0.12001;NaN;NaN;NaN;NaN;NaN;NaN;NaN;NaN;0;80.9;0.0051403;84.7;37;NaN;26.702;931.33;347.48;2e-3;0.028474
0.15;0;0;-9.1744;0;9.2138;0;0;0;0;0;0.85109;-23.364;-48;9.7864;90.161;0;0;0;9665.8;1409.4;6.1689;0.014993;NaN;1497.2;NaN;0.0088201;564521;5.13;0;0.86968;-4.8165e-8;0.5917;0.15798;0.12001;NaN;NaN;NaN;NaN;NaN;NaN;NaN;NaN;0;80.9;0.0051403;84.7;37;NaN;26.702;931.33;347.48;2e-3;0.028686
0.152;0;0;-9.161;0;9.2004;0;0;0;0;0;0.84984;-23.364;-48;9.7864;90.161;0;0;0;9665.8;1409.4;6.1689;0.014993;NaN;1497.2;NaN;0.0088584;566969;5.26;0;0.86915;-4.8135e-8;0.59116;0.15798;0.12001;NaN;NaN;NaN;NaN;NaN;NaN;NaN;NaN;0;80.9;0.0051403;84.7;37;NaN;26.702;931.33;347.48;2e-3;0.028895
0.154;0;0;-9.1489;0;9.1882;0;0;0;0;0;0.84872;-23.364;-48;9.7864;90.161;0;0;0;9665.8;1409.4;6.1689;0.014993;NaN;1497.2;NaN;0.0088966;569417;5.3781;0;0.86861;-4.8105e-8;0.59062;0.15798;0.12001;NaN;NaN;NaN;NaN;NaN;NaN;NaN;NaN;0;80.9;0.0051403;84.7;37;NaN;26.702;931.33;347.48;2e-3;0.029105
0.156;0;0;-9.1441;0;9.1833;0;0;0;0;0;0.84827;-23.364;-48;9.7864;90.161;0;0;0;9665.8;1409.4;6.1689;0.014993;NaN;1497.2;NaN;0.0089349;571865;5.4245;0;0.86808;-4.8076e-8;0.59009;0.15798;0.12001;NaN;NaN;NaN;NaN;NaN;NaN;NaN;NaN;0;80.9;0.0051403;84.7;37;NaN;26.702;931.33;347.48;2e-3;0.029314
0.158;0;0;-9.1405;0;9.1798;0;0;0;0;0;0.84794;-23.364;-48;9.7864;90.161;0;0;0;9665.8;1409.3;6.1689;0.014993;NaN;1497.2;NaN;0.0089731;574314;5.4591;0;0.86755;-4.8047e-8;0.58956;0.15798;0.12001;NaN;NaN;NaN;NaN;NaN;NaN;NaN;NaN;0;80.9;0.0051403;84.7;37;NaN;26.702;931.33;347.48;2e-3;0.029525
0.16;0;0;-9.137;0;9.1762;0;0;0;0;0;0.84761;-23.364;-48;9.7864;90.161;0;0;0;9665.8;1409.3;6.1689;0.014993;NaN;1497.2;NaN;0.0090114;576762;5.4936;0;0.86702;-4.8017e-8;0.58904;0.15798;0.12001;NaN;NaN;NaN;NaN;NaN;NaN;NaN;NaN;0;80.9;0.0051403;84.7;37;NaN;26.702;931.33;347.48;2e-3;0.029735
0.162;0;0;-9.1334;0;9.1726;0;0;0;0;0;0.84728;-23.364;-48;9.7864;90.161;0;0;0;9665.8;1409.3;6.1689;0.014993;NaN;1497.2;NaN;0.0090496;579210;5.5282;0;0.8665;-4.7988e-8;0.58851;0.15798;0.12001;NaN;NaN;NaN;NaN;NaN;NaN;NaN;NaN;0;80.9;0.0051403;84.7;37;NaN;26.702;931.33;347.48;2e-3;0.029946
0.164;0;0;-9.1299;0;9.1691;0;0;0;0;0;0.84695;-23.364;-48;9.7864;90.161;0;0;0;9665.7;1409.3;6.1688;0.014993;NaN;1497.2;NaN;0.0090879;581658;5.5627;0;0.86598;-4.796e-8;0.58799;0.15798;0.12001;NaN;NaN;NaN;NaN;NaN;NaN;NaN;NaN;0;80.9;0.0051403;84.7;37;NaN;26.702;931.33;347.48;2e-3;0.030155
0.166;0;0;-9.1263;0;9.1655;0;0;0;0;0;0.84662;-23.364;-48;9.7864;90.161;0;0;0;9665.7;1409.3;6.1688;0.014993;NaN;1497.2;NaN;0.0091261;584107;5.5973;0;0.86546;-4.7931e-8;0.58748;0.15798;0.12001;NaN;NaN;NaN;NaN;NaN;NaN;NaN;NaN;0;80.9;0.0051403;84.7;37;NaN;26.702;931.33;347.48;2e-3;0.030364
0.168;0;0;-9.1227;0;9.1619;0;0;0;0;0;0.84629;-23.364;-48;9.7864;90.161;0;0;0;9665.7;1409.3;6.1688;0.014993;NaN;1497.2;NaN;0.0091644;586555;5.6318;0;0.86495;-4.7902e-8;0.58696;0.15798;0.12001;NaN;NaN;NaN;NaN;NaN;NaN;NaN;NaN;0;80.9;0.0051403;84.7;37;NaN;26.702;931.33;347.48;2e-3;0.030595
0.17;0;0;-9.1192;0;9.1583;0;0;0;0;0;0.84596;-23.364;-48;9.7864;90.161;0;0;0;9665.7;1409.3;6.1688;0.014993;NaN;1497.2;NaN;0.0092026;589003;5.6664;0;0.86444;-4.7874e-8;0.58645;0.15798;0.12001;NaN;NaN;NaN;NaN;NaN;NaN;NaN;NaN;0;80.9;0.0051403;84.7;37;NaN;26.702;931.33;347.48;2e-3;0.030806
0.172;0;0;-9.1156;0;9.1548;0;0;0;0;0;0.84563;-23.364;-48;9.7864;90.161;0;0;0;9665.7;1409.3;6.1688;0.014993;NaN;1497.2;NaN;0.0092409;591451;5.7009;0;0.86393;-4.7846e-8;0.58594;0.15798;0.12001;NaN;NaN;NaN;NaN;NaN;NaN;NaN;NaN;0;80.9;0.0051403;84.7;37;NaN;26.702;931.33;347.48;2e-3;0.031067
0.174;0;0;-9.1121;0;9.1512;0;0;0;0;0;0.8453;-23.364;-48;9.7864;90.161;0;0;0;9665.7;1409.3;6.1688;0.014993;NaN;1497.2;NaN;0.0092791;593900;5.7355;0;0.86342;-4.7818e-8;0.58543;0.15798;0.12001;NaN;NaN;NaN;NaN;NaN;NaN;NaN;NaN;0;80.9;0.0051403;84.7;37;NaN;26.702;931.33;347.48;2e-3;0.031278
0.176;0;0;-9.1074;0;9.1465;0;0;0;0;0;0.84487;-23.364;-48;9.7864;90.161;0;0;0;9665.7;1409.2;6.1688;0.014993;NaN;1497.2;NaN;0.0093174;596348;5.7809;0;0.86292;-4.779e-8;0.58493;0.15798;0.12001;NaN;NaN;NaN;NaN;NaN;NaN;NaN;NaN;0;80.9;0.0051403;84.7;37;NaN;26.702;931.33;347.48;2e-3;0.031489
0.178;0;0;-9.0959;0;9.135;0;0;0;0;0;0.84381;-23.364;-48;9.7864;90.161;0;0;0;9665.7;1409.2;6.1688;0.014993;NaN;1497.2;NaN;0.0093556;598796;5.8918;0;0.86242;-4.7762e-8;0.58443;0.15798;0.12001;NaN;NaN;NaN;NaN;NaN;NaN;NaN;NaN;0;80.9;0.0051403;84.7;37;NaN;26.702;931.33;347.48;2e-3;0.031698
0.18;0;0;-9.0834;0;9.1224;0;0;0;0;0;0.84264;-23.364;-48;9.7864;90.161;0;0;0;9665.7;1409.2;6.1688;0.014993;NaN;1497.2;NaN;0.0093939;601244;6.0136;0;0.86192;-4.7735e-8;0.58393;0.15798;0.12001;NaN;NaN;NaN;NaN;NaN;NaN;NaN;NaN;0;80.9;0.0051403;84.7;37;NaN;26.702;931.33;347.48;2e-3;0.031905
0.182;0;0;-9.0708;0;9.1098;0;0;0;0;0;0.84148;-23.364;-48;9.7864;90.161;0;0;0;9665.6;1409.2;6.1688;0.014993;NaN;1497.2;NaN;0.0094321;603693;6.1355;0;0.86142;-4.7707e-8;0.58344;0.15798;0.12001;NaN;NaN;NaN;NaN;NaN;NaN;NaN;NaN;0;80.9;0.0051403;84.7;37;NaN;26.702;931.33;347.48;2e-3;0.032113
0.184;0;0;-9.0583;0;9.0972;0;0;0;0;0;0.84031;-23.364;-48;9.7864;90.161;0;0;0;9665.6;1409.2;6.1688;0.014993;NaN;1497.2;NaN;0.0094704;606141;6.2573;0;0.86093;-4.768e-8;0.58294;0.15798;0.12001;NaN;NaN;NaN;NaN;NaN;NaN;NaN;NaN;0;80.9;0.0051403;84.7;37;NaN;26.702;931.33;347.48;2e-3;0.032322
0.186;0;0;-9.0457;0;9.0846;0;0;0;0;0;0.83915;-23.364;-48;9.7864;90.161;0;0;0;9665.6;1409.2;6.1688;0.014993;NaN;1497.2;NaN;0.0095086;608589;6.3791;0;0.86044;-4.7653e-8;0.58245;0.15798;0.12001;NaN;NaN;NaN;NaN;NaN;NaN;NaN;NaN;0;80.9;0.0051403;84.7;37;NaN;26.702;931.33;347.48;2e-3;0.03253
0.188;0;0;-9.0332;0;9.072;0;0;0;0;0;0.83798;-23.364;-48;9.7864;90.161;0;0;0;9665.6;1409.2;6.1688;0.014993;NaN;1497.2;NaN;0.0095469;611037;6.5009;0;0.85995;-4.7626e-8;0.58197;0.15798;0.12001;NaN;NaN;NaN;NaN;NaN;NaN;NaN;NaN;0;80.9;0.0051403;84.7;37;NaN;26.702;931.33;347.48;2e-3;0.03275
0.19;0;0;-9.0206;0;9.0594;0;0;0;0;0;0.83682;-23.364;-48;9.7864;90.161;0;0;0;9665.6;1409.2;6.1688;0.014993;NaN;1497.2;NaN;0.0095851;613486;6.6227;0;0.85947;-4.7599e-8;0.58148;0.15798;0.12001;NaN;NaN;NaN;NaN;NaN;NaN;NaN;NaN;0;80.9;0.0051403;84.7;37;NaN;26.702;931.33;347.48;2e-3;0.032959
0.192;0;0;-9.0081;0;9.0468;0;0;0;0;0;0.83566;-23.364;-48;9.7864;90.161;0;0;0;9665.6;1409.1;6.1688;0.014993;NaN;1497.2;NaN;0.0096234;615934;6.7445;0;0.85899;-4.7572e-8;0.581;0.15798;0.12001;NaN;NaN;NaN;NaN;NaN;NaN;NaN;NaN;0;80.9;0.0051403;84.7;37;NaN;26.702;931.33;347.48;2e-3;0.033175
0.194;0;0;-8.9955;0;9.0342;0;0;0;0;0;0.83449;-23.364;-48;9.7864;90.161;0;0;0;9665.6;1409.1;6.1688;0.014993;NaN;1497.2;NaN;0.0096616;618382;6.8664;0;0.85851;-4.7546e-8;0.58052;0.15798;0.12001;NaN;NaN;NaN;NaN;NaN;NaN;NaN;NaN;0;80.9;0.0051403;84.7;37;NaN;26.702;931.33;347.48;2e-3;0.033397
0.196;0;0;-8.983;0;9.0216;0;0;0;0;0;0.83333;-23.364;-48;9.7864;90.161;0;0;0;9665.6;1409.1;6.1688;0.014993;NaN;1497.2;NaN;0.0096999;620830;6.9882;0;0.85803;-4.7519e-8;0.58004;0.15798;0.12001;NaN;NaN;NaN;NaN;NaN;NaN;NaN;NaN;0;80.9;0.0051403;84.7;37;NaN;26.702;931.33;347.48;2e-3;0.033606
0.198;0;0;-8.9735;0;9.0121;0;0;0;0;0;0.83245;-23.364;-48;9.7864;90.161;0;0;0;9665.5;1409.1;6.1688;0.014993;NaN;1497.2;NaN;0.0097382;623279;7.08;0;0.85755;-4.7493e-8;0.57957;0.15798;0.12001;NaN;NaN;NaN;NaN;NaN;NaN;NaN;NaN;0;80.9;0.0051403;84.7;37;NaN;26.702;931.33;347.48;2e-3;0.033815
0.2;0;0;-8.9826;0;9.0212;0;0;0;0;0;0.83329;-23.364;-48;9.7864;90.161;0;0;0;9665.5;1409.1;6.1688;0.014993;NaN;1497.2;NaN;0.0097764;625727;6.9917;0;0.85708;-4.7467e-8;0.57909;0.15798;0.12001;NaN;NaN;NaN;NaN;NaN;NaN;NaN;NaN;0;80.9;0.0051403;84.7;37;NaN;26.702;931.33;347.48;2e-3;0.03595
0.202;0;0;-8.9948;0;9.0334;0;0;0;0;0;0.83442;-23.364;-48;9.7864;90.161;0;0;0;9665.5;1409.1;6.1688;0.014993;NaN;1497.2;NaN;0.0097825;626120;6.8735;0;0.85701;-4.7463e-8;0.57902;0.15798;0.12001;NaN;NaN;NaN;NaN;NaN;NaN;NaN;NaN;0;80.9;0.0051403;84.7;37;NaN;26.702;931.33;347.48;2e-3;0.036789
0.204;0;0;-9.007;0;9.0457;0;0;0;0;0;0.83555;-23.364;-48;9.7864;90.161;0;0;0;9665.5;1409.1;6.1688;0.014993;NaN;1497.2;NaN;0.0097887;626513;6.7552;0;0.85693;-4.7458e-8;0.57894;0.15798;0.12001;NaN;NaN;NaN;NaN;NaN;NaN;NaN;NaN;0;80.9;0.0051403;84.7;37;NaN;26.702;931.33;347.48;2e-3;0.037282
0.206;0;0;-9.0192;0;9.0579;0;0;0;0;0;0.83668;-23.364;-48;9.7864;90.161;0;0;0;9665.5;1409.1;6.1688;0.014993;NaN;1497.2;NaN;0.0097948;626906;6.637;0;0.85686;-4.7454e-8;0.57887;0.15798;0.12001;NaN;NaN;NaN;NaN;NaN;NaN;NaN;NaN;0;80.9;0.0051403;84.7;37;NaN;26.702;931.33;347.48;2e-3;0.03776
0.208;0;0;-9.0314;0;9.0701;0;0;0;0;0;0.83781;-23.364;-48;9.7864;90.161;0;0;0;9665.5;1409;6.1688;0.014993;NaN;1497.2;NaN;0.009801;627299;6.5187;0;0.85678;-4.745e-8;0.57879;0.15798;0.12001;NaN;NaN;NaN;NaN;NaN;NaN;NaN;NaN;0;80.9;0.0051403;84.7;37;NaN;26.702;931.33;347.48;2e-3;0.038254
0.21;0;0;-9.0435;0;9.0824;0;0;0;0;0;0.83894;-23.364;-48;9.7864;90.161;0;0;0;9665.5;1409;6.1687;0.014993;NaN;1497.2;NaN;0.0098071;627692;6.4004;0;0.8567;-4.7446e-8;0.57871;0.15798;0.12001;NaN;NaN;NaN;NaN;NaN;NaN;NaN;NaN;0;80.9;0.0051403;84.7;37;NaN;26.702;931.33;347.48;2e-3;0.038742
0.212;0;0;-9.0557;0;9.0946;0;0;0;0;0;0.84007;-23.364;-48;9.7864;90.161;0;0;0;9665.5;1409;6.1687;0.014993;NaN;1497.1;NaN;0.0098133;628085;6.2822;0;0.85663;-4.7442e-8;0.57864;0.15798;0.12001;NaN;NaN;NaN;NaN;NaN;NaN;NaN;NaN;0;80.9;0.0051403;84.7;37;NaN;26.702;931.33;347.48;2e-3;0.03928
0.214;0;0;-9.0679;0;9.1068;0;0;0;0;0;0.8412;-23.364;-48;9.7864;90.161;0;0;0;9665.4;1409;6.1687;0.014993;NaN;1497.1;NaN;0.0098194;628479;6.1639;0;0.85655;-4.7438e-8;0.57856;0.15798;0.12001;NaN;NaN;NaN;NaN;NaN;NaN;NaN;NaN;0;80.9;0.0051403;84.7;37;NaN;26.702;931.33;347.48;2e-3;0.039817
0.216;0;0;-9.0801;0;9.1191;0;0;0;0;0;0.84233;-23.364;-48;9.7864;90.161;0;0;0;9665.4;1409;6.1687;0.014993;NaN;1497.1;NaN;0.0098255;628872;6.0457;0;0.85648;-4.7433e-8;0.57849;0.15798;0.12001;NaN;NaN;NaN;NaN;NaN;NaN;NaN;NaN;0;80.9;0.0051403;84.7;37;NaN;26.702;931.33;347.48;2e-3;0.040289
0.218;0;0;-9.0923;0;9.1313;0;0;0;0;0;0.84346;-23.364;-48;9.7864;90.161;0;0;0;9665.4;1409;6.1687;0.014993;NaN;1497.1;NaN;0.0098317;629265;5.9274;0;0.8564;-4.7429e-8;0.57841;0.15798;0.12001;NaN;NaN;NaN;NaN;NaN;NaN;NaN;NaN;0;80.9;0.0051403;84.7;37;NaN;26.702;931.33;347.48;2e-3;0.04068
0.22;0;0;-9.1044;0;9.1435;0;0;0;0;0;0.84459;-23.364;-48;9.7864;90.161;0;0;0;9665.4;1409;6.1687;0.014993;NaN;1497.1;NaN;0.0098378;629658;5.8091;0;0.85633;-4.7425e-8;0.57834;0.15798;0.12001;NaN;NaN;NaN;NaN;NaN;NaN;NaN;NaN;0;80.9;0.0051403;84.7;37;NaN;26.702;931.33;347.48;2e-3;0.041563
0.222;0;0;-9.1075;0;9.1466;0;0;0;0;0;0.84488;-23.364;-48;9.7864;90.161;0;0;0;9665.4;1408.9;6.1687;0.014993;NaN;1497.1;NaN;0.009844;630051;5.779;0;0.85625;-4.7421e-8;0.57826;0.15798;0.12001;NaN;NaN;NaN;NaN;NaN;NaN;NaN;NaN;0;80.9;0.0051403;84.7;37;NaN;26.702;931.33;347.48;2e-3;0.042116
0.224;0;0;-9.1016;0;9.1406;0;0;0;0;0;0.84433;-23.364;-48;9.7864;90.161;0;0;0;9665.4;1408.9;6.1687;0.014993;NaN;1497.1;NaN;0.0098501;630444;5.8371;0;0.85618;-4.7417e-8;0.57819;0.15798;0.12001;NaN;NaN;NaN;NaN;NaN;NaN;NaN;NaN;0;80.9;0.0051403;84.7;37;NaN;26.702;931.33;347.48;2e-3;0.042524
0.226;0;0;-9.0956;0;9.1346;0;0;0;0;0;0.84377;-23.364;-48;9.7864;90.161;0;0;0;9665.4;1408.9;6.1687;0.014993;NaN;1497.1;NaN;0.0098562;630837;5.8952;0;0.8561;-4.7413e-8;0.57811;0.15798;0.12001;NaN;NaN;NaN;NaN;NaN;NaN;NaN;NaN;0;80.9;0.0051403;84.7;37;NaN;26.702;931.33;347.48;2e-3;0.043195
0.228;0;0;-9.0896;0;9.1286;0;0;0;0;0;0.84322;-23.364;-48;9.7864;90.161;0;0;0;9665.4;1408.9;6.1687;0.014993;NaN;1497.1;NaN;0.0098624;631230;5.9533;0;0.85603;-4.7408e-8;0.57804;0.15798;0.12001;NaN;NaN;NaN;NaN;NaN;NaN;NaN;NaN;0;80.9;0.0051403;84.7;37;NaN;26.702;931.33;347.48;2e-3;0.043824
0.23;0;0;-9.0836;0;9.1226;0;0;0;0;0;0.84266;-23.364;-48;9.7864;90.161;0;0;0;9665.3;1408.9;6.1687;0.014993;NaN;1497.1;NaN;0.0098685;631623;6.0114;0;0.85595;-4.7404e-8;0.57796;0.15798;0.12001;NaN;NaN;NaN;NaN;NaN;NaN;NaN;NaN;0;80.9;0.0051403;84.7;37;NaN;26.702;931.33;347.48;2e-3;0.044315
0.232;0;0;-9.0776;0;9.1166;0;0;0;0;0;0.8421;-23.364;-48;9.7864;90.161;0;0;0;9665.3;1408.9;6.1687;0.014993;NaN;1497.1;NaN;0.0098747;632016;6.0695;0;0.85588;-4.74e-8;0.57789;0.15798;0.12001;NaN;NaN;NaN;NaN;NaN;NaN;NaN;NaN;0;80.9;0.0051403;84.7;37;NaN;26.702;931.33;347.48;2e-3;0.04471
0.234;0;0;-9.0716;0;9.1106;0;0;0;0;0;0.84155;-23.364;-48;9.7864;90.161;0;0;0;9665.3;1408.9;6.1687;0.014993;NaN;1497.1;NaN;0.0098808;632410;6.1276;0;0.8558;-4.7396e-8;0.57781;0.15798;0.12001;NaN;NaN;NaN;NaN;NaN;NaN;NaN;NaN;0;80.9;0.0051403;84.7;37;NaN;26.702;931.33;347.48;2e-3;0.045139
0.236;0;0;-9.0656;0;9.1046;0;0;0;0;0;0.84099;-23.364;-48;9.7864;90.161;0;0;0;9665.3;1408.9;6.1687;0.014993;NaN;1497.1;NaN;0.009887;632803;6.1857;0;0.85573;-4.7392e-8;0.57774;0.15798;0.12001;NaN;NaN;NaN;NaN;NaN;NaN;NaN;NaN;0;80.9;0.0051403;84.7;37;NaN;26.702;931.33;347.48;2e-3;0.045518
0.238;0;0;-9.0597;0;9.0986;0;0;0;0;0;0.84044;-23.364;-48;9.7864;90.161;0;0;0;9665.3;1408.9;6.1687;0.014993;NaN;1497.1;NaN;0.0098931;633196;6.2438;0;0.85566;-4.7388e-8;0.57767;0.15798;0.12001;NaN;NaN;NaN;NaN;NaN;NaN;NaN;NaN;0;80.9;0.0051403;84.7;37;NaN;26.702;931.33;347.48;2e-3;0.045927
0.24;0;0;-9.0537;0;9.0925;0;0;0;0;0;0.83988;-23.364;-48;9.7864;90.161;0;0;0;9665.3;1408.8;6.1687;0.014993;NaN;1497.1;NaN;0.0098992;633589;6.3019;0;0.85558;-4.7384e-8;0.57759;0.15798;0.12001;NaN;NaN;NaN;NaN;NaN;NaN;NaN;NaN;0;80.9;0.0051403;84.7;37;NaN;26.702;931.33;347.48;2e-3;0.046278
0.242;0;0;-9.0503;0;9.0892;0;0;0;0;0;0.83957;-23.364;-48;9.7864;90.161;0;0;0;9665.3;1408.8;6.1687;0.014993;NaN;1497.1;NaN;0.0099054;633982;6.3345;0;0.85551;-4.738e-8;0.57752;0.15798;0.12001;NaN;NaN;NaN;NaN;NaN;NaN;NaN;NaN;0;80.9;0.0051403;84.7;37;NaN;26.702;931.33;347.48;2e-3;0.04664
0.244;0;0;-9.0627;0;9.1016;0;0;0;0;0;0.84072;-23.364;-48;9.7864;90.161;0;0;0;9665.3;1408.8;6.1687;0.014993;NaN;1497.1;NaN;0.0099115;634375;6.2139;0;0.85543;-4.7375e-8;0.57744;0.15798;0.12001;NaN;NaN;NaN;NaN;NaN;NaN;NaN;NaN;0;80.9;0.0051403;84.7;37;NaN;26.702;931.33;347.48;2e-3;0.047019
0.246;0;0;-9.0778;0;9.1168;0;0;0;0;0;0.84212;-23.364;-48;9.7864;90.161;0;0;0;9665.2;1408.8;6.1687;0.014993;NaN;1497.1;NaN;0.0099177;634768;6.0678;0;0.85536;-4.7371e-8;0.57737;0.15798;0.12001;NaN;NaN;NaN;NaN;NaN;NaN;NaN;NaN;0;80.9;0.0051403;84.7;37;NaN;26.702;931.33;347.48;2e-3;0.047375
0.248;0;0;-9.0928;0;9.1319;0;0;0;0;0;0.84352;-23.364;-48;9.7864;90.161;0;0;0;9665.2;1408.8;6.1687;0.014993;NaN;1497.1;NaN;0.0099238;635161;5.9217;0;0.85528;-4.7367e-8;0.57729;0.15798;0.12001;NaN;NaN;NaN;NaN;NaN;NaN;NaN;NaN;0;80.9;0.0051403;84.7;37;NaN;26.702;931.33;347.48;2e-3;0.047781
0.25;0;0;-9.1079;0;9.147;0;0;0;0;0;0.84491;-23.364;-48;9.7864;90.161;0;0;0;9665.2;1408.8;6.1687;0.014993;NaN;1497.1;NaN;0.00993;635554;5.7757;0;0.85521;-4.7363e-8;0.57722;0.15798;0.12001;NaN;NaN;NaN;NaN;NaN;NaN;NaN;NaN;0;80.9;0.0051403;84.7;37;NaN;26.702;931.33;347.48;2e-3;0.048169
0.252;0;0;-9.1229;0;9.1621;0;0;0;0;0;0.84631;-23.364;-48;9.7864;90.161;0;0;0;9665.2;1408.8;6.1687;0.014993;NaN;1497.1;NaN;0.0099107;634320;5.6296;0;0.85544;-4.7376e-8;0.57745;0.15798;0.12001;NaN;NaN;NaN;NaN;NaN;NaN;NaN;NaN;0;80.9;0.0051403;84.7;37;NaN;26.702;931.33;347.48;2e-3;0.048511
0.254;0;0;-9.138;0;9.1772;0;0;0;0;0;0.84771;-23.364;-48;9.7864;90.161;0;0;0;9665.2;1408.8;6.1687;0.014993;NaN;1497.1;NaN;0.0098914;633085;5.4835;0;0.85568;-4.7389e-8;0.57769;0.15798;0.12001;NaN;NaN;NaN;NaN;NaN;NaN;NaN;NaN;0;80.9;0.0051403;84.7;37;NaN;26.702;931.33;347.48;2e-3;0.048864
0.256;0;0;-9.153;0;9.1923;0;0;0;0;0;0.8491;-23.364;-48;9.7864;90.161;0;0;0;9665.2;1408.8;6.1687;0.014993;NaN;1497.1;NaN;0.0098721;631851;5.3374;0;0.85591;-4.7402e-8;0.57792;0.15798;0.12001;NaN;NaN;NaN;NaN;NaN;NaN;NaN;NaN;0;80.9;0.0051403;84.7;37;NaN;26.702;931.33;347.48;2e-3;0.049194
0.258;0;0;-9.1681;0;9.2074;0;0;0;0;0;0.8505;-23.364;-48;9.7864;90.161;0;0;0;9665.2;1408.7;6.1686;0.014993;NaN;1497.1;NaN;0.0098528;630616;5.1913;0;0.85615;-4.7415e-8;0.57816;0.15798;0.12001;NaN;NaN;NaN;NaN;NaN;NaN;NaN;NaN;0;80.9;0.0051403;84.7;37;NaN;26.702;931.33;347.48;2e-3;0.049517
0.26;0;0;-9.1831;0;9.2226;0;0;0;0;0;0.85189;-23.364;-48;9.7864;90.161;0;0;0;9665.2;1408.7;6.1686;0.014993;NaN;1497.1;NaN;0.0098335;629382;5.0452;0;0.85638;-4.7428e-8;0.57839;0.15798;0.12001;NaN;NaN;NaN;NaN;NaN;NaN;NaN;NaN;0;80.9;0.0051403;84.7;37;NaN;26.702;931.33;347.48;2e-3;0.04985
0.262;0;0;-9.1982;0;9.2377;0;0;0;0;0;0.85329;-23.364;-48;9.7864;90.161;0;0;0;9665.2;1408.7;6.1686;0.014993;NaN;1497.1;NaN;0.0098142;628148;4.8991;0;0.85662;-4.7441e-8;0.57863;0.15798;0.12001;NaN;NaN;NaN;NaN;NaN;NaN;NaN;NaN;0;80.9;0.0051403;84.7;37;NaN;26.702;931.33;347.48;2e-3;0.050172
0.264;0;0;-9.2132;0;9.2528;0;0;0;0;0;0.85469;-23.364;-48;9.7864;90.161;0;0;0;9665.1;1408.7;6.1686;0.014993;NaN;1497.1;NaN;0.0097949;626913;4.753;0;0.85685;-4.7454e-8;0.57886;0.15798;0.12001;NaN;NaN;NaN;NaN;NaN;NaN;NaN;NaN;0;80.9;0.0051403;84.7;37;NaN;26.702;931.33;347.48;2e-3;0.050496
0.266;0;0;-9.2098;0;9.2494;0;0;0;0;0;0.85437;-23.364;-48;9.7864;90.161;0;0;0;9665.1;1408.7;6.1686;0.014993;NaN;1497.1;NaN;0.0097757;625679;4.7859;0;0.85709;-4.7467e-8;0.5791;0.15798;0.12001;NaN;NaN;NaN;NaN;NaN;NaN;NaN;NaN;0;80.9;0.0051403;84.7;37;NaN;26.702;931.33;347.48;2e-3;0.050817
0.268;0;0;-9.188;0;9.2275;0;0;0;0;0;0.85235;-23.364;-48;9.7864;90.161;0;0;0;9665.1;1408.7;6.1686;0.014993;NaN;1497.1;NaN;0.0097564;624444;4.9977;0;0.85733;-4.748e-8;0.57934;0.15798;0.12001;NaN;NaN;NaN;NaN;NaN;NaN;NaN;NaN;0;80.9;0.0051403;84.7;37;NaN;26.702;931.33;347.48;2e-3;0.05115
0.27;0;0;-9.1662;0;9.2056;0;0;0;0;0;0.85032;-23.364;-48;9.7864;90.161;0;0;0;9665.1;1408.7;6.1686;0.014993;NaN;1497.1;NaN;0.0097371;623210;5.2095;0;0.85757;-4.7494e-8;0.57958;0.15798;0.12001;NaN;NaN;NaN;NaN;NaN;NaN;NaN;NaN;0;80.9;0.0051403;84.7;37;NaN;26.702;931.33;347.48;2e-3;0.051486
0.272;0;0;-9.1444;0;9.1836;0;0;0;0;0;0.8483;-23.364;-48;9.7864;90.161;0;0;0;9665.1;1408.7;6.1686;0.014993;NaN;1497.1;NaN;0.0097178;621975;5.4214;0;0.85781;-4.7507e-8;0.57982;0.15798;0.12001;NaN;NaN;NaN;NaN;NaN;NaN;NaN;NaN;0;80.9;0.0051403;84.7;37;NaN;26.702;931.33;347.48;2e-3;0.051856
0.274;0;0;-9.1226;0;9.1617;0;0;0;0;0;0.84627;-23.364;-48;9.7864;90.161;0;0;0;9665.1;1408.6;6.1686;0.014993;NaN;1497.1;NaN;0.0096985;620741;5.6332;0;0.85805;-4.752e-8;0.58006;0.15798;0.12001;NaN;NaN;NaN;NaN;NaN;NaN;NaN;NaN;0;80.9;0.0051403;84.7;37;NaN;26.702;931.33;347.48;2e-3;0.052286
0.276;0;0;-9.1007;0;9.1398;0;0;0;0;0;0.84425;-23.364;-48;9.7864;90.161;0;0;0;9665.1;1408.6;6.1686;0.014993;NaN;1497.1;NaN;0.0096792;619506;5.845;0;0.85829;-4.7534e-8;0.5803;0.15798;0.12001;NaN;NaN;NaN;NaN;NaN;NaN;NaN;NaN;0;80.9;0.0051403;84.7;37;NaN;26.702;931.33;347.48;2e-3;0.052704
0.278;0;0;-9.0789;0;9.1179;0;0;0;0;0;0.84222;-23.364;-48;9.7864;90.161;0;0;0;9665.1;1408.6;6.1686;0.014993;NaN;1497.1;NaN;0.0096599;618272;6.0568;0;0.85853;-4.7547e-8;0.58054;0.15798;0.12001;NaN;NaN;NaN;NaN;NaN;NaN;NaN;NaN;0;80.9;0.0051403;84.7;37;NaN;26.702;931.33;347.48;2e-3;0.053099
0.28;0;0;-9.0571;0;9.096;0;0;0;0;0;0.8402;-23.364;-48;9.7864;90.161;0;0;0;9665.1;1408.6;6.1686;0.014993;NaN;1497.1;NaN;0.0096406;617037;6.2686;0;0.85877;-4.756e-8;0.58078;0.15798;0.12001;NaN;NaN;NaN;NaN;NaN;NaN;NaN;NaN;0;80.9;0.0051403;84.7;37;NaN;26.702;931.33;347.48;2e-3;0.053459
0.282;0;0;-9.0353;0;9.0741;0;0;0;0;0;0.83818;-23.364;-48;9.7864;90.161;0;0;0;9665;1408.6;6.1686;0.014993;NaN;1497.1;NaN;0.0096214;615803;6.4805;0;0.85901;-4.7574e-8;0.58102;0.15798;0.12001;NaN;NaN;NaN;NaN;NaN;NaN;NaN;NaN;0;80.9;0.0051403;84.7;37;NaN;26.702;931.33;347.48;2e-3;0.053934
0.284;0;0;-9.0134;0;9.0521;0;0;0;0;0;0.83615;-23.364;-48;9.7864;90.161;0;0;0;9665;1408.6;6.1686;0.014993;NaN;1497.1;NaN;0.0096021;614568;6.6923;0;0.85926;-4.7587e-8;0.58127;0.15798;0.12001;NaN;NaN;NaN;NaN;NaN;NaN;NaN;NaN;0;80.9;0.0051403;84.7;37;NaN;26.702;931.33;347.48;2e-3;0.054292
0.286;0;0;-8.9916;0;9.0302;0;0;0;0;0;0.83413;-23.364;-48;9.7864;90.161;0;0;0;9665;1408.6;6.1686;0.014993;NaN;1497.1;NaN;0.0095828;613334;6.9041;0;0.8595;-4.7601e-8;0.58151;0.15798;0.12001;NaN;NaN;NaN;NaN;NaN;NaN;NaN;NaN;0;80.9;0.0051403;84.7;37;NaN;26.702;931.33;347.48;2e-3;0.054636
0.288;0;0;-8.9716;0;9.0101;0;0;0;0;0;0.83227;-23.364;-48;9.7864;90.161;0;0;0;9665;1408.6;6.1686;0.014993;NaN;1497.1;NaN;0.0095635;612099;7.0982;0;0.85974;-4.7614e-8;0.58175;0.15798;0.12001;NaN;NaN;NaN;NaN;NaN;NaN;NaN;NaN;0;80.9;0.0051403;84.7;37;NaN;26.702;931.33;347.48;2e-3;0.055027
0.29;0;0;-8.9534;0;8.9919;0;0;0;0;0;0.83059;-23.364;-48;9.7864;90.161;0;0;0;9665;1408.6;6.1686;0.014993;NaN;1497.1;NaN;0.0095442;610865;7.2745;0;0.85999;-4.7628e-8;0.582;0.15798;0.12001;NaN;NaN;NaN;NaN;NaN;NaN;NaN;NaN;0;80.9;0.0051403;84.7;37;NaN;26.702;931.33;347.48;2e-3;0.055349
0.292;0;0;-8.9353;0;8.9736;0;0;0;0;0;0.8289;-23.364;-48;9.7864;90.161;0;0;0;9665;1408.5;6.1686;0.014993;NaN;1497.1;NaN;0.0095249;609631;7.4509;0;0.86023;-4.7641e-8;0.58225;0.15798;0.12001;NaN;NaN;NaN;NaN;NaN;NaN;NaN;NaN;0;80.9;0.0051403;84.7;37;NaN;26.702;931.33;347.48;2e-3;0.055691
0.294;0;0;-8.9171;0;8.9554;0;0;0;0;0;0.82721;-23.364;-48;9.7864;90.161;0;0;0;9665;1408.5;6.1686;0.014993;NaN;1497.1;NaN;0.0095056;608396;7.6273;0;0.86048;-4.7655e-8;0.58249;0.15798;0.12001;NaN;NaN;NaN;NaN;NaN;NaN;NaN;NaN;0;80.9;0.0051403;84.7;37;NaN;26.702;931.33;347.48;2e-3;0.056017
0.296;0;0;-8.8989;0;8.9371;0;0;0;0;0;0.82553;-23.364;-48;9.7864;90.161;0;0;0;9664.9;1408.5;6.1686;0.014993;NaN;1497.1;NaN;0.0094863;607162;7.8036;0;0.86073;-4.7669e-8;0.58274;0.15798;0.12001;NaN;NaN;NaN;NaN;NaN;NaN;NaN;NaN;0;80.9;0.0051403;84.7;37;NaN;26.702;931.33;347.48;2e-3;0.056309
0.298;0;0;-8.8808;0;8.9189;0;0;0;0;0;0.82384;-23.364;-48;9.7864;90.161;0;0;0;9664.9;1408.5;6.1686;0.014993;NaN;1497.1;NaN;0.0094671;605927;7.98;0;0.86097;-4.7682e-8;0.58299;0.15798;0.12001;NaN;NaN;NaN;NaN;NaN;NaN;NaN;NaN;0;80.9;0.0051403;84.7;37;NaN;26.702;931.33;347.48;2e-3;0.056587
0.3;0;0;-8.8626;0;8.9006;0;0;0;0;0;0.82216;-23.364;-48;9.7864;90.161;0;0;0;9664.9;1408.5;6.1686;0.014993;NaN;1497.1;NaN;0.0094478;604693;8.1564;0;0.86122;-4.7696e-8;0.58323;0.15798;0.12001;NaN;NaN;NaN;NaN;NaN;NaN;NaN;NaN;0;80.9;0.0051403;84.7;37;NaN;26.702;931.33;347.48;2e-3;0.056864
0.302;0;0;-8.8444;0;8.8824;0;0;0;0;0;0.82047;-23.364;-48;9.7864;90.161;0;0;0;9664.9;1408.5;6.1685;0.014993;NaN;1497.1;NaN;0.0094613;605557;8.3327;0;0.86105;-4.7686e-8;0.58306;0.15798;0.12001;NaN;NaN;NaN;NaN;NaN;NaN;NaN;NaN;0;80.9;0.0051403;84.7;37;NaN;26.702;931.33;347.48;2e-3;0.057147
0.304;0;0;-8.8263;0;8.8641;0;0;0;0;0;0.81879;-23.364;-48;9.7864;90.161;0;0;0;9664.9;1408.4;6.1685;0.014993;NaN;1497.1;NaN;0.0094748;606421;8.5091;0;0.86088;-4.7677e-8;0.58289;0.15798;0.12001;NaN;NaN;NaN;NaN;NaN;NaN;NaN;NaN;0;80.9;0.0051403;84.7;37;NaN;26.702;931.33;347.48;2e-3;0.057422
0.306;0;0;-8.8081;0;8.8459;0;0;0;0;0;0.8171;-23.364;-48;9.7864;90.161;0;0;0;9664.9;1408.4;6.1685;0.014993;NaN;1497.1;NaN;0.0094883;607285;8.6855;0;0.8607;-4.7667e-8;0.58271;0.15798;0.12001;NaN;NaN;NaN;NaN;NaN;NaN;NaN;NaN;0;80.9;0.0051403;84.7;37;NaN;26.702;931.33;347.48;2e-3;0.058374
0.308;0;0;-8.7899;0;8.8276;0;0;0;0;0;0.81542;-23.364;-48;9.7864;90.161;0;0;0;9664.9;1408.4;6.1685;0.014993;NaN;1497.1;NaN;0.0095018;608150;8.8618;0;0.86053;-4.7658e-8;0.58254;0.15798;0.12001;NaN;NaN;NaN;NaN;NaN;NaN;NaN;NaN;0;80.9;0.0051403;84.7;37;NaN;26.702;931.33;347.48;2e-3;0.059396
0.31;0;0;-8.7726;0;8.8103;0;0;0;0;0;0.81381;-23.364;-48;9.7864;90.161;0;0;0;9664.8;1408.4;6.1685;0.014993;NaN;1497.1;NaN;0.0095153;609014;9.0295;0;0.86036;-4.7648e-8;0.58237;0.15798;0.12001;NaN;NaN;NaN;NaN;NaN;NaN;NaN;NaN;0;80.9;0.0051403;84.7;37;NaN;26.702;931.33;347.48;2e-3;0.059866
0.312;0;0;-8.7562;0;8.7938;0;0;0;0;0;0.81229;-23.364;-48;9.7864;90.161;0;0;0;9664.8;1408.4;6.1685;0.014993;NaN;1497.1;NaN;0.0095288;609878;9.1886;0;0.86018;-4.7639e-8;0.5822;0.15798;0.12001;NaN;NaN;NaN;NaN;NaN;NaN;NaN;NaN;0;80.9;0.0051403;84.7;37;NaN;26.702;931.33;347.48;2e-3;0.060208
0.314;0;0;-8.7398;0;8.7774;0;0;0;0;0;0.81077;-23.364;-48;9.7864;90.161;0;0;0;9664.8;1408.4;6.1685;0.014993;NaN;1497.1;NaN;0.0095423;610742;9.3477;0;0.86001;-4.7629e-8;0.58202;0.15798;0.12001;NaN;NaN;NaN;NaN;NaN;NaN;NaN;NaN;0;80.9;0.0051403;84.7;37;NaN;26.702;931.33;347.48;2e-3;0.06053
0.316;0;0;-8.7234;0;8.7609;0;0;0;0;0;0.80925;-23.364;-48;9.7864;90.161;0;0;0;9664.8;1408.3;6.1685;0.014993;NaN;1497.1;NaN;0.0095558;611607;9.5068;0;0.85984;-4.762e-8;0.58185;0.15798;0.12001;NaN;NaN;NaN;NaN;NaN;NaN;NaN;NaN;0;80.9;0.0051403;84.7;37;NaN;26.702;931.33;347.48;2e-3;0.060849
0.318;0;0;-8.7071;0;8.7444;0;0;0;0;0;0.80773;-23.364;-48;9.7864;90.161;0;0;0;9664.8;1408.3;6.1685;0.014993;NaN;1497.1;NaN;0.0095693;612471;9.6659;0;0.85967;-4.761e-8;0.58168;0.15798;0.12001;NaN;NaN;NaN;NaN;NaN;NaN;NaN;NaN;0;80.9;0.0051403;84.7;37;NaN;26.702;931.33;347.48;2e-3;0.061171
0.32;0;0;-8.6907;0;8.728;0;0;0;0;0;0.80621;-23.364;-48;9.7864;90.161;0;0;0;9664.7;1408.3;6.1685;0.014993;NaN;1497.1;NaN;0.0095828;613335;9.825;0;0.8595;-4.7601e-8;0.58151;0.15798;0.12001;NaN;NaN;NaN;NaN;NaN;NaN;NaN;NaN;0;80.9;0.0051403;84.7;37;NaN;26.702;931.33;347.48;2e-3;0.06149
0.322;0;0;-8.6743;0;8.7115;0;0;0;0;0;0.80469;-23.364;-48;9.7864;90.161;0;0;0;9664.7;1408.3;6.1685;0.014993;NaN;1497.1;NaN;0.0095963;614199;9.9841;0;0.85933;-4.7591e-8;0.58134;0.15798;0.12001;NaN;NaN;NaN;NaN;NaN;NaN;NaN;NaN;0;80.9;0.0051403;84.7;37;NaN;26.702;931.33;347.48;2e-3;0.061808
0.324;0;0;-8.6579;0;8.6951;0;0;0;0;0;0.80317;-23.364;-48;9.7864;90.161;0;0;0;9664.7;1408.3;6.1685;0.014993;NaN;1497.1;NaN;0.0096098;615063;10.143;0;0.85916;-4.7582e-8;0.58117;0.15798;0.12001;NaN;NaN;NaN;NaN;NaN;NaN;NaN;NaN;0;80.9;0.0051403;84.7;37;NaN;26.702;931.33;347.48;2e-3;0.062277
0.326;0;0;-8.6415;0;8.6786;0;0;0;0;0;0.80165;-23.364;-48;9.7864;90.161;0;0;0;9664.7;1408.2;6.1685;0.014993;NaN;1497.1;NaN;0.0096233;615928;10.302;0;0.85899;-4.7572e-8;0.581;0.15798;0.12001;NaN;NaN;NaN;NaN;NaN;NaN;NaN;NaN;0;80.9;0.0051403;84.7;37;NaN;26.702;931.33;347.48;2e-3;0.062596
0.328;0;0;-8.6251;0;8.6621;0;0;0;0;0;0.80013;-23.364;-48;9.7864;90.161;0;0;0;9664.7;1408.2;6.1685;0.014993;NaN;1497.1;NaN;0.0096368;616792;10.461;0;0.85882;-4.7563e-8;0.58083;0.15798;0.12001;NaN;NaN;NaN;NaN;NaN;NaN;NaN;NaN;0;80.9;0.0051403;84.7;37;NaN;26.702;931.33;347.48;2e-3;0.062862
0.33;0;0;-8.6087;0;8.6457;0;0;0;0;0;0.7986;-23.364;-48;9.7864;90.161;0;0;0;9664.6;1408.2;6.1685;0.014993;NaN;1497.1;NaN;0.0096503;617656;10.62;0;0.85865;-4.7554e-8;0.58066;0.15798;0.12001;NaN;NaN;NaN;NaN;NaN;NaN;NaN;NaN;0;80.9;0.0051403;84.7;37;NaN;26.702;931.33;347.48;2e-3;0.063118
0.332;0;0;-8.5947;0;8.6316;0;0;0;0;0;0.79731;-23.364;-48;9.7864;90.161;0;0;0;9664.6;1408.2;6.1684;0.014993;NaN;1497.1;NaN;0.0096638;618520;10.756;0;0.85848;-4.7544e-8;0.58049;0.15798;0.12001;NaN;NaN;NaN;NaN;NaN;NaN;NaN;NaN;0;80.9;0.0051403;84.7;37;NaN;26.702;931.33;347.48;2e-3;0.063409
0.334;0;0;-8.5832;0;8.62;0;0;0;0;0;0.79624;-23.364;-48;9.7864;90.161;0;0;0;9664.6;1408.2;6.1684;0.014993;NaN;1497.1;NaN;0.0096773;619385;10.868;0;0.85831;-4.7535e-8;0.58032;0.15798;0.12001;NaN;NaN;NaN;NaN;NaN;NaN;NaN;NaN;0;80.9;0.0051403;84.7;37;NaN;26.702;931.33;347.48;2e-3;0.063654
0.336;0;0;-8.5716;0;8.6084;0;0;0;0;0;0.79516;-23.364;-48;9.7864;90.161;0;0;0;9664.6;1408.1;6.1684;0.014993;NaN;1497.1;NaN;0.0096908;620249;10.98;0;0.85814;-4.7526e-8;0.58015;0.15798;0.12001;NaN;NaN;NaN;NaN;NaN;NaN;NaN;NaN;0;80.9;0.0051403;84.7;37;NaN;26.702;931.33;347.48;2e-3;0.063899
0.338;0;0;-8.56;0;8.5968;0;0;0;0;0;0.79409;-23.364;-48;9.7864;90.161;0;0;0;9664.6;1408.1;6.1684;0.014993;NaN;1497.1;NaN;0.0097043;621113;11.093;0;0.85797;-4.7516e-8;0.57999;0.15798;0.12001;NaN;NaN;NaN;NaN;NaN;NaN;NaN;NaN;0;80.9;0.0051403;84.7;37;NaN;26.702;931.33;347.48;2e-3;0.064172
0.34;0;0;-8.5485;0;8.5852;0;0;0;0;0;0.79302;-23.364;-48;9.7864;90.161;0;0;0;9664.5;1408.1;6.1684;0.014993;NaN;1497.1;NaN;0.0097178;621977;11.205;0;0.85781;-4.7507e-8;0.57982;0.15798;0.12001;NaN;NaN;NaN;NaN;NaN;NaN;NaN;NaN;0;80.9;0.0051403;84.7;37;NaN;26.702;931.33;347.48;2e-3;0.064412
0.342;0;0;-8.5369;0;8.5736;0;0;0;0;0;0.79195;-23.364;-48;9.7864;90.161;0;0;0;9664.5;1408.1;6.1684;0.014993;NaN;1497.1;NaN;0.0097313;622842;11.317;0;0.85764;-4.7498e-8;0.57965;0.15798;0.12001;NaN;NaN;NaN;NaN;NaN;NaN;NaN;NaN;0;80.9;0.0051403;84.7;37;NaN;26.702;931.33;347.48;2e-3;0.064664
0.344;0;0;-8.5254;0;8.562;0;0;0;0;0;0.79087;-23.364;-48;9.7864;90.161;0;0;0;9664.5;1408;6.1684;0.014993;NaN;1497.1;NaN;0.0097448;623706;11.429;0;0.85747;-4.7488e-8;0.57948;0.15798;0.12001;NaN;NaN;NaN;NaN;NaN;NaN;NaN;NaN;0;80.9;0.0051403;84.7;37;NaN;26.702;931.33;347.48;2e-3;0.064918
0.346;0;0;-8.5138;0;8.5504;0;0;0;0;0;0.7898;-23.364;-48;9.7864;90.161;0;0;0;9664.5;1408;6.1684;0.014992;NaN;1497.1;NaN;0.0097583;624570;11.541;0;0.85731;-4.7479e-8;0.57932;0.15798;0.12001;NaN;NaN;NaN;NaN;NaN;NaN;NaN;NaN;0;80.9;0.0051403;84.7;37;NaN;26.702;931.33;347.48;2e-3;0.065148
0.348;0;0;-8.5022;0;8.5388;0;0;0;0;0;0.78873;-23.364;-48;9.7864;90.161;0;0;0;9664.4;1408;6.1684;0.014992;NaN;1497.1;NaN;0.0097718;625434;11.653;0;0.85714;-4.747e-8;0.57915;0.15798;0.12001;NaN;NaN;NaN;NaN;NaN;NaN;NaN;NaN;0;80.9;0.0051403;84.7;37;NaN;26.702;931.33;347.48;2e-3;0.065378
0.35;0;0;-8.4907;0;8.5271;0;0;0;0;0;0.78766;-23.364;-48;9.7864;90.161;0;0;0;9664.4;1408;6.1684;0.014992;NaN;1497.1;NaN;0.0097853;626298;11.766;0;0.85697;-4.7461e-8;0.57898;0.15798;0.12001;NaN;NaN;NaN;NaN;NaN;NaN;NaN;NaN;0;80.9;0.0051403;84.7;37;NaN;26.702;931.33;347.48;2e-3;0.065652
0.352;0;0;-8.4791;0;8.5155;0;0;0;0;0;0.78658;-23.364;-48;9.7864;90.161;0;0;0;9664.4;1408;6.1684;0.014992;NaN;1497.1;NaN;0.0098409;629857;11.878;0;0.85629;-4.7423e-8;0.5783;0.15798;0.12001;NaN;NaN;NaN;NaN;NaN;NaN;NaN;NaN;0;80.9;0.0051403;84.7;37;NaN;26.702;931.33;347.48;2e-3;0.065881
0.354;0;0;-8.4634;0;8.4998;0;0;0;0;0;0.78513;-23.364;-48;9.7864;90.161;0;0;0;9664.4;1407.9;6.1684;0.014992;NaN;1497.1;NaN;0.0098965;633415;12.03;0;0.85561;-4.7385e-8;0.57762;0.15798;0.12001;NaN;NaN;NaN;NaN;NaN;NaN;NaN;NaN;0;80.9;0.0051403;84.7;37;NaN;26.702;931.33;347.48;2e-3;0.06611
0.356;0;0;-8.423;0;8.4592;0;0;0;0;0;0.78138;-23.364;-48;9.7864;90.161;0;0;0;9664.3;1407.9;6.1684;0.014992;NaN;1497.1;NaN;0.0099521;636974;12.422;0;0.85494;-4.7348e-8;0.57695;0.15798;0.12001;NaN;NaN;NaN;NaN;NaN;NaN;NaN;NaN;0;80.9;0.0051403;84.7;37;NaN;26.702;931.33;347.48;2e-3;0.066338
0.358;0;0;-8.3785;0;8.4144;0;0;0;0;0;0.77725;-23.364;-48;9.7864;90.161;0;0;0;9664.3;1407.9;6.1683;0.014992;NaN;1497.1;NaN;0.010008;640532;12.855;0;0.85428;-4.7311e-8;0.57628;0.15798;0.12001;NaN;NaN;NaN;NaN;NaN;NaN;NaN;NaN;0;80.9;0.0051403;84.7;37;NaN;26.702;931.33;347.48;2e-3;0.066566
0.36;0;0;-8.3339;0;8.3697;0;0;0;0;0;0.77311;-23.364;-48;9.7864;90.161;0;0;0;9664.3;1407.9;6.1683;0.014992;NaN;1497.1;NaN;0.010063;644090;13.287;0;0.85361;-4.7275e-8;0.57562;0.15798;0.12001;NaN;NaN;NaN;NaN;NaN;NaN;NaN;NaN;0;80.9;0.0051403;84.7;37;NaN;26.702;931.33;347.48;2e-3;0.066805
0.362;0;0;-8.2894;0;8.3249;0;0;0;0;0;0.76898;-23.364;-48;9.7864;90.161;0;0;0;9664.3;1407.8;6.1683;0.014992;NaN;1497.1;NaN;0.010119;647649;13.72;0;0.85296;-4.7238e-8;0.57497;0.15798;0.12001;NaN;NaN;NaN;NaN;NaN;NaN;NaN;NaN;0;80.9;0.0051403;84.7;37;NaN;26.702;931.33;347.48;2e-3;0.067036
0.364;0;0;-8.2448;0;8.2802;0;0;0;0;0;0.76485;-23.364;-48;9.7864;90.161;0;0;0;9664.2;1407.8;6.1683;0.014992;NaN;1497.1;NaN;0.010175;651207;14.152;0;0.8523;-4.7202e-8;0.57431;0.15798;0.12001;NaN;NaN;NaN;NaN;NaN;NaN;NaN;NaN;0;80.9;0.0051403;84.7;37;NaN;26.702;931.33;347.48;2e-3;0.067277
0.366;0;0;-8.2002;0;8.2355;0;0;0;0;0;0.76071;-23.364;-48;9.7864;90.161;0;0;0;9664.2;1407.8;6.1683;0.014992;NaN;1497.1;NaN;0.01023;654766;14.584;0;0.85166;-4.7166e-8;0.57367;0.15798;0.12001;NaN;NaN;NaN;NaN;NaN;NaN;NaN;NaN;0;80.9;0.0051403;84.7;37;NaN;26.702;931.33;347.48;2e-3;0.067503
0.368;0;0;-8.1557;0;8.1907;0;0;0;0;0;0.75658;-23.364;-48;9.7864;90.161;0;0;0;9664.2;1407.7;6.1683;0.014992;NaN;1497.1;NaN;0.010286;658324;15.017;0;0.85101;-4.7131e-8;0.57302;0.15798;0.12001;NaN;NaN;NaN;NaN;NaN;NaN;NaN;NaN;0;80.9;0.0051403;84.7;37;NaN;26.702;931.33;347.48;2e-3;0.067744
0.37;0;0;-8.1111;0;8.146;0;0;0;0;0;0.75245;-23.364;-48;9.7864;90.161;0;0;0;9664.2;1407.7;6.1683;0.014992;NaN;1497.1;NaN;0.010341;661882;15.449;0;0.85037;-4.7095e-8;0.57238;0.15798;0.12001;NaN;NaN;NaN;NaN;NaN;NaN;NaN;NaN;0;80.9;0.0051403;84.7;37;NaN;26.702;931.33;347.48;2e-3;0.067968
0.372;0;0;-8.0666;0;8.1012;0;0;0;0;0;0.74831;-23.364;-48;9.7864;90.161;0;0;0;9664.1;1407.7;6.1683;0.014992;NaN;1497.1;NaN;0.010397;665441;15.881;0;0.84974;-4.706e-8;0.57175;0.15798;0.12001;NaN;NaN;NaN;NaN;NaN;NaN;NaN;NaN;0;80.9;0.0051403;84.7;37;NaN;26.702;931.33;347.48;2e-3;0.068197
0.374;0;0;-8.022;0;8.0565;0;0;0;0;0;0.74418;-23.364;-48;9.7864;90.161;0;0;0;9664.1;1407.7;6.1683;0.014992;NaN;1497.1;NaN;0.010452;668999;16.314;0;0.84911;-4.7025e-8;0.57112;0.15798;0.12001;NaN;NaN;NaN;NaN;NaN;NaN;NaN;NaN;0;80.9;0.0051403;84.7;37;NaN;26.702;931.33;347.48;2e-3;0.068422
0.376;0;0;-7.9843;0;8.0186;0;0;0;0;0;0.74068;-23.364;-48;9.7864;90.161;0;0;0;9664.1;1407.6;6.1682;0.014992;NaN;1497.1;NaN;0.010508;672558;16.68;0;0.84849;-4.6991e-8;0.57049;0.15798;0.12001;NaN;NaN;NaN;NaN;NaN;NaN;NaN;NaN;0;80.9;0.0051403;84.7;37;NaN;26.702;931.33;347.48;2e-3;0.068655
0.378;0;0;-7.9535;0;7.9877;0;0;0;0;0;0.73783;-23.364;-48;9.7864;90.161;0;0;0;9664;1407.6;6.1682;0.014992;NaN;1497.1;NaN;0.010564;676116;16.979;0;0.84786;-4.6956e-8;0.56987;0.15798;0.12001;NaN;NaN;NaN;NaN;NaN;NaN;NaN;NaN;0;80.9;0.0051403;84.7;37;NaN;26.702;931.33;347.48;2e-3;0.068877
0.38;0;0;-7.9227;0;7.9567;0;0;0;0;0;0.73497;-23.364;-48;9.7864;90.161;0;0;0;9664;1407.6;6.1682;0.014992;NaN;1497.1;NaN;0.010619;679674;17.278;0;0.84725;-4.6922e-8;0.56926;0.15798;0.12001;NaN;NaN;NaN;NaN;NaN;NaN;NaN;NaN;0;80.9;0.0051403;84.7;37;NaN;26.702;931.33;347.48;2e-3;0.069105
0.382;0;0;-7.8919;0;7.9257;0;0;0;0;0;0.73211;-23.364;-48;9.7864;90.161;0;0;0;9664;1407.5;6.1682;0.014992;NaN;1497.1;NaN;0.010675;683233;17.577;0;0.84664;-4.6888e-8;0.56864;0.15798;0.12001;NaN;NaN;NaN;NaN;NaN;NaN;NaN;NaN;0;80.9;0.0051403;84.7;37;NaN;26.702;931.33;347.48;2e-3;0.069367
0.384;0;0;-7.861;0;7.8948;0;0;0;0;0;0.72925;-23.364;-48;9.7864;90.161;0;0;0;9663.9;1407.5;6.1682;0.014992;NaN;1497.1;NaN;0.01073;686791;17.876;0;0.84603;-4.6855e-8;0.56803;0.15798;0.12001;NaN;NaN;NaN;NaN;NaN;NaN;NaN;NaN;0;80.9;0.0051403;84.7;37;NaN;26.702;931.33;347.48;2e-3;0.069588
0.386;0;0;-7.8302;0;7.8638;0;0;0;0;0;0.72639;-23.364;-48;9.7864;90.161;0;0;0;9663.9;1407.4;6.1682;0.014992;NaN;1497.1;NaN;0.010786;690349;18.175;0;0.84542;-4.6821e-8;0.56743;0.15798;0.12002;NaN;NaN;NaN;NaN;NaN;NaN;NaN;NaN;0;80.9;0.0051403;84.7;37;NaN;26.702;931.33;347.48;2e-3;0.069803
0.388;0;0;-7.7994;0;7.8329;0;0;0;0;0;0.72353;-23.364;-48;9.7864;90.161;0;0;0;9663.9;1407.4;6.1682;0.014992;NaN;1497.1;NaN;0.010842;693908;18.474;0;0.84482;-4.6788e-8;0.56683;0.15798;0.12002;NaN;NaN;NaN;NaN;NaN;NaN;NaN;NaN;0;80.9;0.0051403;84.7;37;NaN;26.702;931.33;347.48;2e-3;0.070019
0.39;0;0;-7.7685;0;7.8019;0;0;0;0;0;0.72067;-23.364;-48;9.7864;90.161;0;0;0;9663.8;1407.4;6.1682;0.014992;NaN;1497.1;NaN;0.010897;697466;18.773;0;0.84423;-4.6755e-8;0.56623;0.15798;0.12002;NaN;NaN;NaN;NaN;NaN;NaN;NaN;NaN;0;80.9;0.0051403;84.7;37;NaN;26.702;931.33;347.48;2e-3;0.070233
0.392;0;0;-7.7377;0;7.7709;0;0;0;0;0;0.71781;-23.364;-48;9.7864;90.161;0;0;0;9663.8;1407.3;6.1681;0.014992;NaN;1497.1;NaN;0.010953;701025;19.073;0;0.84363;-4.6722e-8;0.56564;0.15798;0.12002;NaN;NaN;NaN;NaN;NaN;NaN;NaN;NaN;0;80.9;0.0051403;84.7;37;NaN;26.702;931.33;347.48;2e-3;0.07046
0.394;0;0;-7.7069;0;7.74;0;0;0;0;0;0.71495;-23.364;-48;9.7864;90.161;0;0;0;9663.7;1407.3;6.1681;0.014992;NaN;1497.1;NaN;0.011008;704583;19.372;0;0.84305;-4.6689e-8;0.56505;0.15798;0.12002;NaN;NaN;NaN;NaN;NaN;NaN;NaN;NaN;0;80.9;0.0051403;84.7;37;NaN;26.702;931.33;347.48;2e-3;0.070676
0.396;0;0;-7.6761;0;7.709;0;0;0;0;0;0.71209;-23.364;-48;9.7864;90.161;0;0;0;9663.7;1407.3;6.1681;0.014992;NaN;1497;NaN;0.011064;708141;19.671;0;0.84246;-4.6657e-8;0.56447;0.15798;0.12002;NaN;NaN;NaN;NaN;NaN;NaN;NaN;NaN;0;80.9;0.0051403;84.7;37;NaN;26.702;931.33;347.48;2e-3;0.070892
0.398;0;0;-7.6378;0;7.6706;0;0;0;0;0;0.70854;-23.364;-48;9.7864;90.161;0;0;0;9663.7;1407.2;6.1681;0.014992;NaN;1497;NaN;0.01112;711700;20.042;0;0.84188;-4.6625e-8;0.56389;0.15798;0.12002;NaN;NaN;NaN;NaN;NaN;NaN;NaN;NaN;0;80.9;0.0051403;84.7;37;NaN;26.702;931.33;347.48;2e-3;0.071107
0.4;0;0;-7.5553;0;7.5877;0;0;0;0;0;0.70088;-23.364;-48;9.7864;90.161;0;0;0;9663.6;1407.2;6.1681;0.014992;NaN;1497;NaN;0.011175;715258;20.843;0;0.8413;-4.6593e-8;0.56331;0.15798;0.12002;NaN;NaN;NaN;NaN;NaN;NaN;NaN;NaN;0;80.9;0.0051403;84.7;37;NaN;26.702;931.33;347.48;2e-3;0.071333
0.402;0;0;-7.4654;0;7.4974;0;0;0;0;0;0.69254;-23.364;-48;9.7864;90.161;0;0;0;9663.6;1407.1;6.1681;0.014992;NaN;1497;NaN;0.011164;714511;21.715;0;0.84143;-4.66e-8;0.56343;0.15798;0.12002;NaN;NaN;NaN;NaN;NaN;NaN;NaN;NaN;0;80.9;0.0051403;84.7;37;NaN;26.702;931.33;347.48;2e-3;0.077506
0.404;0;0;-7.3754;0;7.4071;0;0;0;0;0;0.6842;-23.364;-48;9.7864;90.161;0;0;0;9663.5;1407.1;6.1681;0.014992;NaN;1497;NaN;0.011152;713764;22.588;0;0.84155;-4.6606e-8;0.56355;0.15798;0.12002;NaN;NaN;NaN;NaN;NaN;NaN;NaN;NaN;0;80.9;0.0051403;84.7;37;NaN;26.702;931.33;347.48;2e-3;0.077884
0.406;0;0;-7.2855;0;7.3168;0;0;0;0;0;0.67585;-23.364;-48;9.7864;90.161;0;0;0;9663.5;1407;6.168;0.014992;NaN;1497;NaN;0.01114;713016;23.461;0;0.84167;-4.6613e-8;0.56367;0.15798;0.12002;NaN;NaN;NaN;NaN;NaN;NaN;NaN;NaN;0;80.9;0.0051403;84.7;37;NaN;26.702;931.33;347.48;2e-3;0.078232
0.408;0;0;-7.1956;0;7.2264;0;0;0;0;0;0.66751;-23.364;-48;9.7864;90.161;0;0;0;9663.4;1407;6.168;0.014992;NaN;1497;NaN;0.011129;712269;24.334;0;0.84179;-4.662e-8;0.56379;0.15798;0.12002;NaN;NaN;NaN;NaN;NaN;NaN;NaN;NaN;0;80.9;0.0051403;84.7;37;NaN;26.702;931.33;347.48;2e-3;0.078502
