# Time (s);Altitude (m);Vertical velocity (m/s);Vertical acceleration (m/s);Total velocity (m/s);Total acceleration (m/s);Position East of launch (m);Position North of launch (m);Lateral distance (m);Lateral direction ();Lateral velocity (m/s);Lateral acceleration (m/s);Latitude ();Longitude ();Gravitational acceleration (m/s);Angle of attack ();Roll rate (/s);Pitch rate (/s);Yaw rate (/s);Mass (g);Propellant mass (g);Longitudinal moment of inertia (kgm);Rotational moment of inertia (kgm);CP location (mm);CG location (mm);Stability margin calibers (?);Mach number (?);Reynolds number (?);Thrust (N);Drag force (N);Drag coefficient (?);Axial drag coefficient (?);Friction drag coefficient (?);Pressure drag coefficient (?);Base drag coefficient (?);Normal force coefficient (?);Pitch moment coefficient (?);Yaw moment coefficient (?);Side force coefficient (?);Roll moment coefficient (?);Roll forcing coefficient (?);Roll damping coefficient (?);Pitch damping coefficient (?);Coriolis acceleration (m/s);Reference length (mm);Reference area (m);Vertical orientation (zenith) ();Lateral orientation (azimuth) ();Wind velocity (m/s);Air temperature (C);Air pressure (Pa);Speed of sound (m/s);Simulation time step (s);Computation time (s)
# Event LAUNCH occurred at t=0 seconds
# Event IGNITION occurred at t=0 seconds
0;0;0;-9.3012;0;9.3411;0;0;0;0;0;0.86284;-23.364;-48;9.7864;92.806;0;0;0;9666.4;1410;6.1691;0.014993;NaN;1497.2;NaN;0.0099024;633789;3.82;-8.0765e-6;0.85554;-2.453e-4;0.57755;0.15798;0.12001;NaN;NaN;NaN;NaN;NaN;NaN;NaN;NaN;0;80.9;0.0051403;84.7;37;NaN;26.702;93133;347.48;2e-3;0.0091664
2e-3;0;0;-9.3053;0;9.3452;0;0;0;0;0;0.86323;-23.364;-48;9.7864;92.806;0;0;0;9666.4;1410;6.1691;0.014993;NaN;1497.2;NaN;0.0098984;633534;3.86;-8.0705e-6;0.85559;-2.4531e-4;0.5776;0.15798;0.12001;NaN;NaN;NaN;NaN;NaN;NaN;NaN;NaN;0;80.9;0.0051403;84.7;37;NaN;26.702;93133;347.48;2e-3;0.012929
4e-3;0;0;-9.3012;0;9.3411;0;0;0;0;0;0.86284;-23.364;-48;9.7864;92.806;0;0;0;9666.4;1410;6.1691;0.014993;NaN;1497.2;NaN;0.0098944;633279;3.9;-8.0644e-6;0.85564;-2.4533e-4;0.57765;0.15798;0.12001;NaN;NaN;NaN;NaN;NaN;NaN;NaN;NaN;0;80.9;0.0051403;84.7;37;NaN;26.702;93133;347.48;2e-3;0.016645
6e-3;0;0;-9.297;0;9.337;0;0;0;0;0;0.86246;-23.364;-48;9.7864;92.806;0;0;0;9666.4;1410;6.1691;0.014993;NaN;1497.2;NaN;0.0098904;633024;3.94;-8.0584e-6;0.85569;-2.4534e-4;0.5777;0.15798;0.12001;NaN;NaN;NaN;NaN;NaN;NaN;NaN;NaN;0;80.9;0.0051403;84.7;37;NaN;26.702;93133;347.48;2e-3;0.026212
8e-3;0;0;-9.2929;0;9.3328;0;0;0;0;0;0.86208;-23.364;-48;9.7864;92.806;0;0;0;9666.4;1410;6.1691;0.014993;NaN;1497.2;NaN;0.0098864;632769;3.98;-8.0523e-6;0.85574;-2.4535e-4;0.57775;0.15798;0.12001;NaN;NaN;NaN;NaN;NaN;NaN;NaN;NaN;0;80.9;0.0051403;84.7;37;NaN;26.702;93133;347.48;2e-3;0.0292
0.01;0;0;-9.2888;0;9.3287;0;0;0;0;0;0.8617;-23.364;-48;9.7864;92.806;0;0;0;9666.4;1410;6.1691;0.014993;NaN;1497.2;NaN;0.0098825;632514;4.02;-8.0463e-6;0.85578;-2.4537e-4;0.57779;0.15798;0.12001;NaN;NaN;NaN;NaN;NaN;NaN;NaN;NaN;0;80.9;0.0051403;84.7;37;NaN;26.702;93133;347.48;2e-3;0.031847
0.012;0;0;-9.2847;0;9.3245;0;0;0;0;0;0.86131;-23.364;-48;9.7864;92.806;0;0;0;9666.4;1410;6.1691;0.014993;NaN;1497.2;NaN;0.0098785;632259;4.06;-8.0403e-6;0.85583;-2.4538e-4;0.57784;0.15798;0.12001;NaN;NaN;NaN;NaN;NaN;NaN;NaN;NaN;0;80.9;0.0051403;84.7;37;NaN;26.702;93133;347.48;2e-3;0.034414
0.014;0;0;-9.2806;0;9.3204;0;0;0;0;0;0.86093;-23.364;-48;9.7864;92.806;0;0;0;9666.4;1409.9;6.1691;0.014993;NaN;1497.2;NaN;0.0098745;632004;4.1;-8.0343e-6;0.85588;-2.4539e-4;0.57789;0.15798;0.12001;NaN;NaN;NaN;NaN;NaN;NaN;NaN;NaN;0;80.9;0.0051403;84.7;37;NaN;26.702;93133;347.48;2e-3;0.037869
0.016;0;0;-9.2764;0;9.3163;0;0;0;0;0;0.86055;-23.364;-48;9.7864;92.806;0;0;0;9666.4;1409.9;6.1691;0.014993;NaN;1497.2;NaN;0.0098705;631749;4.14;-8.0282e-6;0.85593;-2.4541e-4;0.57794;0.15798;0.12001;NaN;NaN;NaN;NaN;NaN;NaN;NaN;NaN;0;80.9;0.0051403;84.7;37;NaN;26.702;93133;347.48;2e-3;0.041196
0.018;0;0;-9.2723;0;9.3121;0;0;0;0;0;0.86017;-23.364;-48;9.7864;92.806;0;0;0;9666.4;1409.9;6.1691;0.014993;NaN;1497.2;NaN;0.0098665;631494;4.18;-8.0222e-6;0.85598;-2.4542e-4;0.57799;0.15798;0.12001;NaN;NaN;NaN;NaN;NaN;NaN;NaN;NaN;0;80.9;0.0051403;84.7;37;NaN;26.702;93133;347.48;2e-3;0.044135
0.02;0;0;-9.2682;0;9.308;0;0;0;0;0;0.85978;-23.364;-48;9.7864;92.806;0;0;0;9666.4;1409.9;6.1691;0.014993;NaN;1497.2;NaN;0.0098625;631239;4.22;-8.0162e-6;0.85603;-2.4544e-4;0.57804;0.15798;0.12001;NaN;NaN;NaN;NaN;NaN;NaN;NaN;NaN;0;80.9;0.0051403;84.7;37;NaN;26.702;93133;347.48;2e-3;0.0467
0.022;0;0;-9.2654;0;9.3052;0;0;0;0;0;0.85953;-23.364;-48;9.7864;92.806;0;0;0;9666.4;1409.9;6.1691;0.014993;NaN;1497.2;NaN;0.0098586;630984;4.247;-8.0102e-6;0.85608;-2.4545e-4;0.57809;0.15798;0.12001;NaN;NaN;NaN;NaN;NaN;NaN;NaN;NaN;0;80.9;0.0051403;84.7;37;NaN;26.702;93133;347.48;2e-3;0.049293
0.024;0;0;-9.264;0;9.3038;0;0;0;0;0;0.85939;-23.364;-48;9.7864;92.806;0;0;0;9666.3;1409.9;6.1691;0.014993;NaN;1497.2;NaN;0.0098546;630730;4.2609;-8.0041e-6;0.85612;-2.4546e-4;0.57813;0.15798;0.12001;NaN;NaN;NaN;NaN;NaN;NaN;NaN;NaN;0;80.9;0.0051403;84.7;37;NaN;26.702;93133;347.48;2e-3;0.050705
0.026;0;0;-9.2626;0;9.3023;0;0;0;0;0;0.85926;-23.364;-48;9.7864;92.806;0;0;0;9666.3;1409.9;6.1691;0.014993;NaN;1497.2;NaN;0.0098506;630475;4.2748;-7.9981e-6;0.85617;-2.4548e-4;0.57818;0.15798;0.12001;NaN;NaN;NaN;NaN;NaN;NaN;NaN;NaN;0;80.9;0.0051403;84.7;37;NaN;26.702;93133;347.48;2e-3;0.051833
0.028;0;0;-9.2611;0;9.3009;0;0;0;0;0;0.85913;-23.364;-48;9.7864;92.806;0;0;0;9666.3;1409.9;6.1691;0.014993;NaN;1497.2;NaN;0.0098466;630220;4.2887;-7.9921e-6;0.85622;-2.4549e-4;0.57823;0.15798;0.12001;NaN;NaN;NaN;NaN;NaN;NaN;NaN;NaN;0;80.9;0.0051403;84.7;37;NaN;26.702;93133;347.48;2e-3;0.052979
0.03;0;0;-9.2597;0;9.2994;0;0;0;0;0;0.859;-23.364;-48;9.7864;92.806;0;0;0;9666.3;1409.9;6.1691;0.014993;NaN;1497.2;NaN;0.0098426;629965;4.3026;-7.9861e-6;0.85627;-2.4551e-4;0.57828;0.15798;0.12001;NaN;NaN;NaN;NaN;NaN;NaN;NaN;NaN;0;80.9;0.0051403;84.7;37;NaN;26.702;93133;347.48;2e-3;0.056267
0.032;0;0;-9.2583;0;9.298;0;0;0;0;0;0.85886;-23.364;-48;9.7864;92.806;0;0;0;9666.3;1409.9;6.1691;0.014993;NaN;1497.2;NaN;0.0098386;629710;4.3165;-7.9801e-6;0.85632;-2.4552e-4;0.57833;0.15798;0.12001;NaN;NaN;NaN;NaN;NaN;NaN;NaN;NaN;0;80.9;0.0051403;84.7;37;NaN;26.702;93133;347.48;2e-3;0.058286
0.034;0;0;-9.2568;0;9.2966;0;0;0;0;0;0.85873;-23.364;-48;9.7864;92.806;0;0;0;9666.3;1409.9;6.169;0.014993;NaN;1497.2;NaN;0.0098346;629455;4.3304;-7.9741e-6;0.85637;-2.4553e-4;0.57838;0.15798;0.12001;NaN;NaN;NaN;NaN;NaN;NaN;NaN;NaN;0;80.9;0.0051403;84.7;37;NaN;26.702;93133;347.48;2e-3;0.060338
0.036;0;0;-9.2554;0;9.2951;0;0;0;0;0;0.8586;-23.364;-48;9.7864;92.806;0;0;0;9666.3;1409.9;6.169;0.014993;NaN;1497.2;NaN;0.0098307;629200;4.3443;-7.9681e-6;0.85642;-2.4555e-4;0.57843;0.15798;0.12001;NaN;NaN;NaN;NaN;NaN;NaN;NaN;NaN;0;80.9;0.0051403;84.7;37;NaN;26.702;93133;347.48;2e-3;0.062334
0.038;0;0;-9.254;0;9.2937;0;0;0;0;0;0.85846;-23.364;-48;9.7864;92.806;0;0;0;9666.3;1409.8;6.169;0.014993;NaN;1497.2;NaN;0.0098267;628945;4.3583;-7.9621e-6;0.85646;-2.4556e-4;0.57847;0.15798;0.12001;NaN;NaN;NaN;NaN;NaN;NaN;NaN;NaN;0;80.9;0.0051403;84.7;37;NaN;26.702;93133;347.48;2e-3;0.064489
0.04;0;0;-9.2525;0;9.2922;0;0;0;0;0;0.85833;-23.364;-48;9.7864;92.806;0;0;0;9666.3;1409.8;6.169;0.014993;NaN;1497.2;NaN;0.0098227;628690;4.3722;-7.9561e-6;0.85651;-2.4558e-4;0.57852;0.15798;0.12001;NaN;NaN;NaN;NaN;NaN;NaN;NaN;NaN;0;80.9;0.0051403;84.7;37;NaN;26.702;93133;347.48;2e-3;0.067387
0.042;0;0;-9.2511;0;9.2908;0;0;0;0;0;0.8582;-23.364;-48;9.7864;92.806;0;0;0;9666.3;1409.8;6.169;0.014993;NaN;1497.2;NaN;0.0098187;628435;4.3861;-7.9501e-6;0.85656;-2.4559e-4;0.57857;0.15798;0.12001;NaN;NaN;NaN;NaN;NaN;NaN;NaN;NaN;0;80.9;0.0051403;84.7;37;NaN;26.702;93133;347.48;2e-3;0.070248
0.044;0;0;-9.2499;0;9.2896;0;0;0;0;0;0.85809;-23.364;-48;9.7864;92.806;0;0;0;9666.3;1409.8;6.169;0.014993;NaN;1497.2;NaN;0.0098147;628180;4.3978;-7.9441e-6;0.85661;-2.456e-4;0.57862;0.15798;0.12001;NaN;NaN;NaN;NaN;NaN;NaN;NaN;NaN;0;80.9;0.0051403;84.7;37;NaN;26.702;93133;347.48;2e-3;0.072487
0.046;0;0;-9.25;0;9.2898;0;0;0;0;0;0.8581;-23.364;-48;9.7864;92.806;0;0;0;9666.3;1409.8;6.169;0.014993;NaN;1497.2;NaN;0.0098107;627925;4.3962;-7.9381e-6;0.85666;-2.4562e-4;0.57867;0.15798;0.12001;NaN;NaN;NaN;NaN;NaN;NaN;NaN;NaN;0;80.9;0.0051403;84.7;37;NaN;26.702;93133;347.48;2e-3;0.075636
0.048;0;0;-9.2504;0;9.2902;0;0;0;0;0;0.85814;-23.364;-48;9.7864;92.806;0;0;0;9666.2;1409.8;6.169;0.014993;NaN;1497.2;NaN;0.0098068;627670;4.3924;-7.9321e-6;0.85671;-2.4563e-4;0.57872;0.15798;0.12001;NaN;NaN;NaN;NaN;NaN;NaN;NaN;NaN;0;80.9;0.0051403;84.7;37;NaN;26.702;93133;347.48;2e-3;0.077222
0.05;0;0;-9.2508;0;9.2905;0;0;0;0;0;0.85817;-23.364;-48;9.7864;92.806;0;0;0;9666.2;1409.8;6.169;0.014993;NaN;1497.2;NaN;0.0098028;627415;4.3886;-7.9261e-6;0.85676;-2.4565e-4;0.57877;0.15798;0.12001;NaN;NaN;NaN;NaN;NaN;NaN;NaN;NaN;0;80.9;0.0051403;84.7;37;NaN;26.702;93133;347.48;2e-3;0.078351
0.052;0;0;-9.2512;0;9.2909;0;0;0;0;0;0.85821;-23.364;-48;9.7864;92.806;0;0;0;9666.2;1409.8;6.169;0.014993;NaN;1497.2;NaN;0.0097812;626031;4.3848;-7.8936e-6;0.85702;-2.4572e-4;0.57903;0.15798;0.12001;NaN;NaN;NaN;NaN;NaN;NaN;NaN;NaN;0;80.9;0.0051403;84.7;37;NaN;26.702;93133;347.48;2e-3;0.079627
0.054;0;0;-9.2516;0;9.2913;0;0;0;0;0;0.85825;-23.364;-48;9.7864;92.806;0;0;0;9666.2;1409.8;6.169;0.014993;NaN;1497.2;NaN;0.0097595;624646;4.381;-7.8612e-6;0.85729;-2.458e-4;0.5793;0.15798;0.12001;NaN;NaN;NaN;NaN;NaN;NaN;NaN;NaN;0;80.9;0.0051403;84.7;37;NaN;26.702;93133;347.48;2e-3;0.080722
0.056;0;0;-9.252;0;9.2917;0;0;0;0;0;0.85828;-23.364;-48;9.7864;92.806;0;0;0;9666.2;1409.8;6.169;0.014993;NaN;1497.2;NaN;0.0097379;623262;4.3771;-7.8288e-6;0.85756;-2.4587e-4;0.57957;0.15798;0.12001;NaN;NaN;NaN;NaN;NaN;NaN;NaN;NaN;0;80.9;0.0051403;84.7;37;NaN;26.702;93133;347.48;2e-3;0.081806
0.058;0;0;-9.2524;0;9.2921;0;0;0;0;0;0.85832;-23.364;-48;9.7864;92.806;0;0;0;9666.2;1409.8;6.169;0.014993;NaN;1497.2;NaN;0.0097163;621878;4.3733;-7.7965e-6;0.85783;-2.4595e-4;0.57984;0.15798;0.12001;NaN;NaN;NaN;NaN;NaN;NaN;NaN;NaN;0;80.9;0.0051403;84.7;37;NaN;26.702;93133;347.48;2e-3;0.082894
0.06;0;0;-9.2528;0;9.2925;0;0;0;0;0;0.85836;-23.364;-48;9.7864;92.806;0;0;0;9666.2;1409.8;6.169;0.014993;NaN;1497.2;NaN;0.0096946;620494;4.3695;-7.7643e-6;0.8581;-2.4603e-4;0.58011;0.15798;0.12001;NaN;NaN;NaN;NaN;NaN;NaN;NaN;NaN;0;80.9;0.0051403;84.7;37;NaN;26.702;93133;347.48;2e-3;0.08398
0.062;0;0;-9.2532;0;9.2929;0;0;0;0;0;0.85839;-23.364;-48;9.7864;92.806;0;0;0;9666.2;1409.7;6.169;0.014993;NaN;1497.2;NaN;0.009673;619109;4.3657;-7.7321e-6;0.85836;-2.4611e-4;0.58038;0.15798;0.12001;NaN;NaN;NaN;NaN;NaN;NaN;NaN;NaN;0;80.9;0.0051403;84.7;37;NaN;26.702;93133;347.48;2e-3;0.085066
0.064;0;0;-9.2536;0;9.2933;0;0;0;0;0;0.85843;-23.364;-48;9.7864;92.806;0;0;0;9666.2;1409.7;6.169;0.014993;NaN;1497.2;NaN;0.0096514;617725;4.3619;-7.7e-6;0.85864;-2.4618e-4;0.58065;0.15798;0.12001;NaN;NaN;NaN;NaN;NaN;NaN;NaN;NaN;0;80.9;0.0051403;84.7;37;NaN;26.702;93133;347.48;2e-3;0.086236
0.066;0;0;-9.2534;0;9.2931;0;0;0;0;0;0.85841;-23.364;-48;9.7864;92.806;0;0;0;9666.2;1409.7;6.169;0.014993;NaN;1497.2;NaN;0.0096298;616341;4.3639;-7.668e-6;0.85891;-2.4626e-4;0.58092;0.15798;0.12001;NaN;NaN;NaN;NaN;NaN;NaN;NaN;NaN;0;80.9;0.0051403;84.7;37;NaN;26.702;93133;347.48;2e-3;0.088457
0.068;0;0;-9.2526;0;9.2923;0;0;0;0;0;0.85833;-23.364;-48;9.7864;92.806;0;0;0;9666.2;1409.7;6.169;0.014993;NaN;1497.2;NaN;0.0096081;614957;4.3717;-7.636e-6;0.85918;-2.4634e-4;0.58119;0.15798;0.12001;NaN;NaN;NaN;NaN;NaN;NaN;NaN;NaN;0;80.9;0.0051403;84.7;37;NaN;26.702;93133;347.48;2e-3;0.092205
0.07;0;0;-9.2518;0;9.2915;0;0;0;0;0;0.85826;-23.364;-48;9.7864;92.806;0;0;0;9666.1;1409.7;6.169;0.014993;NaN;1497.2;NaN;0.0095865;613572;4.3796;-7.604e-6;0.85945;-2.4642e-4;0.58146;0.15798;0.12001;NaN;NaN;NaN;NaN;NaN;NaN;NaN;NaN;0;80.9;0.0051403;84.7;37;NaN;26.702;93133;347.48;2e-3;0.093396
0.072;0;0;-9.2509;0;9.2907;0;0;0;0;0;0.85818;-23.364;-48;9.7864;92.806;0;0;0;9666.1;1409.7;6.169;0.014993;NaN;1497.2;NaN;0.0095649;612188;4.3874;-7.5722e-6;0.85973;-2.465e-4;0.58174;0.15798;0.12001;NaN;NaN;NaN;NaN;NaN;NaN;NaN;NaN;0;80.9;0.0051403;84.7;37;NaN;26.702;93133;347.48;2e-3;0.094597
0.074;0;0;-9.2501;0;9.2899;0;0;0;0;0;0.85811;-23.364;-48;9.7864;92.806;0;0;0;9666.1;1409.7;6.169;0.014993;NaN;1497.2;NaN;0.0095432;610804;4.3952;-7.5404e-6;0.86;-2.4658e-4;0.58201;0.15798;0.12001;NaN;NaN;NaN;NaN;NaN;NaN;NaN;NaN;0;80.9;0.0051403;84.7;37;NaN;26.702;93133;347.48;2e-3;0.095706
0.076;0;0;-9.2493;0;9.289;0;0;0;0;0;0.85803;-23.364;-48;9.7864;92.806;0;0;0;9666.1;1409.7;6.169;0.014993;NaN;1497.2;NaN;0.0095216;609419;4.403;-7.5087e-6;0.86028;-2.4665e-4;0.58229;0.15798;0.12001;NaN;NaN;NaN;NaN;NaN;NaN;NaN;NaN;0;80.9;0.0051403;84.7;37;NaN;26.702;93133;347.48;2e-3;0.096795
0.078;0;0;-9.2485;0;9.2882;0;0;0;0;0;0.85796;-23.364;-48;9.7864;92.806;0;0;0;9666.1;1409.7;6.169;0.014993;NaN;1497.2;NaN;0.0095;608035;4.4109;-7.477e-6;0.86055;-2.4673e-4;0.58256;0.15798;0.12001;NaN;NaN;NaN;NaN;NaN;NaN;NaN;NaN;0;80.9;0.0051403;84.7;37;NaN;26.702;93133;347.48;2e-3;0.097882
0.08;0;0;-9.2477;0;9.2874;0;0;0;0;0;0.85789;-23.364;-48;9.7864;92.806;0;0;0;9666.1;1409.7;6.169;0.014993;NaN;1497.2;NaN;0.0094784;606651;4.4187;-7.4454e-6;0.86083;-2.4681e-4;0.58284;0.15798;0.12001;NaN;NaN;NaN;NaN;NaN;NaN;NaN;NaN;0;80.9;0.0051403;84.7;37;NaN;26.702;93133;347.48;2e-3;0.09898
0.082;0;0;-9.2469;0;9.2866;0;0;0;0;0;0.85781;-23.364;-48;9.7864;92.806;0;0;0;9666.1;1409.7;6.169;0.014993;NaN;1497.2;NaN;0.0094567;605267;4.4265;-7.4138e-6;0.86111;-2.4689e-4;0.58312;0.15798;0.12001;NaN;NaN;NaN;NaN;NaN;NaN;NaN;NaN;0;80.9;0.0051403;84.7;37;NaN;26.702;93133;347.48;2e-3;0.10013
0.084;0;0;-9.2461;0;9.2858;0;0;0;0;0;0.85774;-23.364;-48;9.7864;92.806;0;0;0;9666.1;1409.6;6.169;0.014993;NaN;1497.2;NaN;0.0094351;603882;4.4343;-7.3823e-6;0.86139;-2.4697e-4;0.5834;0.15798;0.12001;NaN;NaN;NaN;NaN;NaN;NaN;NaN;NaN;0;80.9;0.0051403;84.7;37;NaN;26.702;93133;347.48;2e-3;0.1013
0.086;0;0;-9.2453;0;9.285;0;0;0;0;0;0.85766;-23.364;-48;9.7864;92.806;0;0;0;9666.1;1409.6;6.169;0.014993;NaN;1497.2;NaN;0.0094135;602498;4.4422;-7.3509e-6;0.86167;-2.4705e-4;0.58368;0.15798;0.12001;NaN;NaN;NaN;NaN;NaN;NaN;NaN;NaN;0;80.9;0.0051403;84.7;37;NaN;26.702;93133;347.48;2e-3;0.10238
0.088;0;0;-9.246;0;9.2857;0;0;0;0;0;0.85772;-23.364;-48;9.7864;92.806;0;0;0;9666.1;1409.6;6.169;0.014993;NaN;1497.2;NaN;0.0093918;601114;4.4356;-7.3196e-6;0.86195;-2.4713e-4;0.58396;0.15798;0.12001;NaN;NaN;NaN;NaN;NaN;NaN;NaN;NaN;0;80.9;0.0051403;84.7;37;NaN;26.702;93133;347.48;2e-3;0.10401
0.09;0;0;-9.2555;0;9.2953;0;0;0;0;0;0.85861;-23.364;-48;9.7864;92.806;0;0;0;9666.1;1409.6;6.169;0.014993;NaN;1497.2;NaN;0.0093702;599730;4.3427;-7.2883e-6;0.86223;-2.4721e-4;0.58424;0.15798;0.12001;NaN;NaN;NaN;NaN;NaN;NaN;NaN;NaN;0;80.9;0.0051403;84.7;37;NaN;26.702;93133;347.48;2e-3;0.10618
0.092;0;0;-9.2666;0;9.3064;0;0;0;0;0;0.85964;-23.364;-48;9.7864;92.806;0;0;0;9666.1;1409.6;6.169;0.014993;NaN;1497.2;NaN;0.0093486;598345;4.2355;-7.257e-6;0.86251;-2.4729e-4;0.58452;0.15798;0.12001;NaN;NaN;NaN;NaN;NaN;NaN;NaN;NaN;0;80.9;0.0051403;84.7;37;NaN;26.702;93133;347.48;2e-3;0.10735
0.094;0;0;-9.2776;0;9.3175;0;0;0;0;0;0.86066;-23.364;-48;9.7864;92.806;0;0;0;9666;1409.6;6.169;0.014993;NaN;1497.2;NaN;0.009327;596961;4.1282;-7.2259e-6;0.86279;-2.4738e-4;0.5848;0.15798;0.12001;NaN;NaN;NaN;NaN;NaN;NaN;NaN;NaN;0;80.9;0.0051403;84.7;37;NaN;26.702;93133;347.48;2e-3;0.10857
0.096;0;0;-9.2887;0;9.3286;0;0;0;0;0;0.86169;-23.364;-48;9.7864;92.806;0;0;0;9666;1409.6;6.169;0.014993;NaN;1497.2;NaN;0.0093053;595577;4.0209;-7.1948e-6;0.86308;-2.4746e-4;0.58509;0.15798;0.12001;NaN;NaN;NaN;NaN;NaN;NaN;NaN;NaN;0;80.9;0.0051403;84.7;37;NaN;26.702;93133;347.48;2e-3;0.10966
0.098;0;0;-9.2997;0;9.3397;0;0;0;0;0;0.86271;-23.364;-48;9.7864;92.806;0;0;0;9666;1409.6;6.1689;0.014993;NaN;1497.2;NaN;0.0092837;594193;3.9136;-7.1637e-6;0.86336;-2.4754e-4;0.58537;0.15798;0.12001;NaN;NaN;NaN;NaN;NaN;NaN;NaN;NaN;0;80.9;0.0051403;84.7;37;NaN;26.702;93133;347.48;2e-3;0.11076
0.1;0;0;-9.3108;0;9.3508;0;0;0;0;0;0.86374;-23.364;-48;9.7864;92.806;0;0;0;9666;1409.6;6.1689;0.014993;NaN;1497.2;NaN;0.0092621;592808;3.8064;-7.1327e-6;0.86365;-2.4762e-4;0.58566;0.15798;0.12001;NaN;NaN;NaN;NaN;NaN;NaN;NaN;NaN;0;80.9;0.0051403;84.7;37;NaN;26.702;93133;347.48;2e-3;0.11184
0.102;0;0;-9.3218;0;9.3619;0;0;0;0;0;0.86476;-23.364;-48;9.7864;92.806;0;0;0;9666;1409.6;6.1689;0.014993;NaN;1497.2;NaN;0.0092631;592872;3.6991;-7.1342e-6;0.86363;-2.4762e-4;0.58565;0.15798;0.12001;NaN;NaN;NaN;NaN;NaN;NaN;NaN;NaN;0;80.9;0.0051403;84.7;37;NaN;26.702;93133;347.48;2e-3;0.11303
0.104;0;0;-9.3329;0;9.373;0;0;0;0;0;0.86579;-23.364;-48;9.7864;92.806;0;0;0;9666;1409.6;6.1689;0.014993;NaN;1497.2;NaN;0.0092641;592937;3.5918;-7.1356e-6;0.86362;-2.4761e-4;0.58563;0.15798;0.12001;NaN;NaN;NaN;NaN;NaN;NaN;NaN;NaN;0;80.9;0.0051403;84.7;37;NaN;26.702;93133;347.48;2e-3;0.11426
0.106;0;0;-9.3439;0;9.3841;0;0;0;0;0;0.86681;-23.364;-48;9.7864;92.806;0;0;0;9666;1409.6;6.1689;0.014993;NaN;1497.2;NaN;0.0092651;593001;3.4845;-7.1371e-6;0.86361;-2.4761e-4;0.58562;0.15798;0.12001;NaN;NaN;NaN;NaN;NaN;NaN;NaN;NaN;0;80.9;0.0051403;84.7;37;NaN;26.702;93133;347.48;2e-3;0.11575
0.108;0;0;-9.355;0;9.3952;0;0;0;0;0;0.86784;-23.364;-48;9.7864;92.806;0;0;0;9666;1409.6;6.1689;0.014993;NaN;1497.2;NaN;0.0092661;593065;3.3773;-7.1385e-6;0.86359;-2.4761e-4;0.58561;0.15798;0.12001;NaN;NaN;NaN;NaN;NaN;NaN;NaN;NaN;0;80.9;0.0051403;84.7;37;NaN;26.702;93133;347.48;2e-3;0.11687
0.11;0;0;-9.3639;0;9.4041;0;0;0;0;0;0.86866;-23.364;-48;9.7864;92.806;0;0;0;9666;1409.5;6.1689;0.014993;NaN;1497.2;NaN;0.0092671;593129;3.2912;-7.1399e-6;0.86358;-2.476e-4;0.58559;0.15798;0.12001;NaN;NaN;NaN;NaN;NaN;NaN;NaN;NaN;0;80.9;0.0051403;84.7;37;NaN;26.702;93133;347.48;2e-3;0.11797
0.112;0;0;-9.3596;0;9.3998;0;0;0;0;0;0.86826;-23.364;-48;9.7864;92.806;0;0;0;9666;1409.5;6.1689;0.014993;NaN;1497.2;NaN;0.0092681;593194;3.3327;-7.1414e-6;0.86357;-2.476e-4;0.58558;0.15798;0.12001;NaN;NaN;NaN;NaN;NaN;NaN;NaN;NaN;0;80.9;0.0051403;84.7;37;NaN;26.702;93133;347.48;2e-3;0.11912
0.114;0;0;-9.3531;0;9.3933;0;0;0;0;0;0.86766;-23.364;-48;9.7864;92.806;0;0;0;9666;1409.5;6.1689;0.014993;NaN;1497.2;NaN;0.0092691;593258;3.3955;-7.1428e-6;0.86355;-2.4759e-4;0.58557;0.15798;0.12001;NaN;NaN;NaN;NaN;NaN;NaN;NaN;NaN;0;80.9;0.0051403;84.7;37;NaN;26.702;93133;347.48;2e-3;0.12061
0.116;0;0;-9.3467;0;9.3868;0;0;0;0;0;0.86706;-23.364;-48;9.7864;92.806;0;0;0;9666;1409.5;6.1689;0.014993;NaN;1497.2;NaN;0.0092701;593322;3.4582;-7.1442e-6;0.86354;-2.4759e-4;0.58555;0.15798;0.12001;NaN;NaN;NaN;NaN;NaN;NaN;NaN;NaN;0;80.9;0.0051403;84.7;37;NaN;26.702;93133;347.48;2e-3;0.1225
0.118;0;0;-9.3402;0;9.3803;0;0;0;0;0;0.86646;-23.364;-48;9.7864;92.806;0;0;0;9666;1409.5;6.1689;0.014993;NaN;1497.2;NaN;0.0092711;593386;3.5209;-7.1457e-6;0.86353;-2.4759e-4;0.58554;0.15798;0.12001;NaN;NaN;NaN;NaN;NaN;NaN;NaN;NaN;0;80.9;0.0051403;84.7;37;NaN;26.702;93133;347.48;2e-3;0.12497
0.12;0;0;-9.3337;0;9.3738;0;0;0;0;0;0.86586;-23.364;-48;9.7864;92.806;0;0;0;9665.9;1409.5;6.1689;0.014993;NaN;1497.2;NaN;0.0092721;593451;3.5836;-7.1471e-6;0.86351;-2.4758e-4;0.58553;0.15798;0.12001;NaN;NaN;NaN;NaN;NaN;NaN;NaN;NaN;0;80.9;0.0051403;84.7;37;NaN;26.702;93133;347.48;2e-3;0.12683
0.122;0;0;-9.3273;0;9.3673;0;0;0;0;0;0.86526;-23.364;-48;9.7864;92.806;0;0;0;9665.9;1409.5;6.1689;0.014993;NaN;1497.2;NaN;0.0092731;593515;3.6464;-7.1485e-6;0.8635;-2.4758e-4;0.58551;0.15798;0.12001;NaN;NaN;NaN;NaN;NaN;NaN;NaN;NaN;0;80.9;0.0051403;84.7;37;NaN;26.702;93133;347.48;2e-3;0.12877
0.124;0;0;-9.3208;0;9.3608;0;0;0;0;0;0.86467;-23.364;-48;9.7864;92.806;0;0;0;9665.9;1409.5;6.1689;0.014993;NaN;1497.2;NaN;0.0092741;593579;3.7091;-7.15e-6;0.86349;-2.4758e-4;0.5855;0.15798;0.12001;NaN;NaN;NaN;NaN;NaN;NaN;NaN;NaN;0;80.9;0.0051403;84.7;37;NaN;26.702;93133;347.48;2e-3;0.13039
0.126;0;0;-9.3143;0;9.3543;0;0;0;0;0;0.86407;-23.364;-48;9.7864;92.806;0;0;0;9665.9;1409.5;6.1689;0.014993;NaN;1497.2;NaN;0.0092751;593643;3.7718;-7.1514e-6;0.86347;-2.4757e-4;0.58549;0.15798;0.12001;NaN;NaN;NaN;NaN;NaN;NaN;NaN;NaN;0;80.9;0.0051403;84.7;37;NaN;26.702;93133;347.48;2e-3;0.13152
0.128;0;0;-9.3079;0;9.3479;0;0;0;0;0;0.86347;-23.364;-48;9.7864;92.806;0;0;0;9665.9;1409.5;6.1689;0.014993;NaN;1497.2;NaN;0.0092761;593708;3.8345;-7.1529e-6;0.86346;-2.4757e-4;0.58547;0.15798;0.12001;NaN;NaN;NaN;NaN;NaN;NaN;NaN;NaN;0;80.9;0.0051403;84.7;37;NaN;26.702;93133;347.48;2e-3;0.1326
0.13;0;0;-9.3014;0;9.3414;0;0;0;0;0;0.86287;-23.364;-48;9.7864;92.806;0;0;0;9665.9;1409.5;6.1689;0.014993;NaN;1497.2;NaN;0.0092771;593772;3.8973;-7.1543e-6;0.86345;-2.4756e-4;0.58546;0.15798;0.12001;NaN;NaN;NaN;NaN;NaN;NaN;NaN;NaN;0;80.9;0.0051403;84.7;37;NaN;26.702;93133;347.48;2e-3;0.13367
0.132;0;0;-9.2941;0;9.334;0;0;0;0;0;0.86219;-23.364;-48;9.7864;92.806;0;0;0;9665.9;1409.5;6.1689;0.014993;NaN;1497.2;NaN;0.0092781;593836;3.9684;-7.1557e-6;0.86344;-2.4756e-4;0.58545;0.15798;0.12001;NaN;NaN;NaN;NaN;NaN;NaN;NaN;NaN;0;80.9;0.0051403;84.7;37;NaN;26.702;93133;347.48;2e-3;0.13474
0.134;0;0;-9.2816;0;9.3214;0;0;0;0;0;0.86103;-23.364;-48;9.7864;92.806;0;0;0;9665.9;1409.5;6.1689;0.014993;NaN;1497.2;NaN;0.0092791;593900;4.09;-7.1572e-6;0.86342;-2.4756e-4;0.58543;0.15798;0.12001;NaN;NaN;NaN;NaN;NaN;NaN;NaN;NaN;0;80.9;0.0051403;84.7;37;NaN;26.702;93133;347.48;2e-3;0.1506
0.136;0;0;-9.2682;0;9.308;0;0;0;0;0;0.85978;-23.364;-48;9.7864;92.806;0;0;0;9665.9;1409.4;6.1689;0.014993;NaN;1497.2;NaN;0.0092801;593965;4.22;-7.1586e-6;0.86341;-2.4755e-4;0.58542;0.15798;0.12001;NaN;NaN;NaN;NaN;NaN;NaN;NaN;NaN;0;80.9;0.0051403;84.7;37;NaN;26.702;93133;347.48;2e-3;0.15215
0.138;0;0;-9.2548;0;9.2945;0;0;0;0;0;0.85854;-23.364;-48;9.7864;92.806;0;0;0;9665.9;1409.4;6.1689;0.014993;NaN;1497.2;NaN;0.0092812;594029;4.35;-7.1601e-6;0.8634;-2.4755e-4;0.58541;0.15798;0.12001;NaN;NaN;NaN;NaN;NaN;NaN;NaN;NaN;0;80.9;0.0051403;84.7;37;NaN;26.702;93133;347.48;2e-3;0.15333
0.14;0;0;-9.2414;0;9.2811;0;0;0;0;0;0.8573;-23.364;-48;9.7864;92.806;0;0;0;9665.9;1409.4;6.1689;0.014993;NaN;1497.2;NaN;0.0092822;594093;4.48;-7.1615e-6;0.86338;-2.4754e-4;0.58539;0.15798;0.12001;NaN;NaN;NaN;NaN;NaN;NaN;NaN;NaN;0;80.9;0.0051403;84.7;37;NaN;26.702;93133;347.48;2e-3;0.15448
0.142;0;0;-9.228;0;9.2676;0;0;0;0;0;0.85606;-23.364;-48;9.7864;92.806;0;0;0;9665.9;1409.4;6.1689;0.014993;NaN;1497.2;NaN;0.0092832;594157;4.61;-7.1629e-6;0.86337;-2.4754e-4;0.58538;0.15798;0.12001;NaN;NaN;NaN;NaN;NaN;NaN;NaN;NaN;0;80.9;0.0051403;84.7;37;NaN;26.702;93133;347.48;2e-3;0.15593
0.144;0;0;-9.2146;0;9.2542;0;0;0;0;0;0.85481;-23.364;-48;9.7864;92.806;0;0;0;9665.8;1409.4;6.1689;0.014993;NaN;1497.2;NaN;0.0092842;594222;4.74;-7.1644e-6;0.86336;-2.4754e-4;0.58537;0.15798;0.12001;NaN;NaN;NaN;NaN;NaN;NaN;NaN;NaN;0;80.9;0.0051403;84.7;37;NaN;26.702;93133;347.48;2e-3;0.15728
0.146;0;0;-9.2012;0;9.2407;0;0;0;0;0;0.85357;-23.364;-48;9.7864;92.806;0;0;0;9665.8;1409.4;6.1689;0.014993;NaN;1497.2;NaN;0.0092852;594286;4.87;-7.1658e-6;0.86334;-2.4753e-4;0.58535;0.15798;0.12001;NaN;NaN;NaN;NaN;NaN;NaN;NaN;NaN;0;80.9;0.0051403;84.7;37;NaN;26.702;93133;347.48;2e-3;0.15843
0.148;0;0;-9.1878;0;9.2273;0;0;0;0;0;0.85233;-23.364;-48;9.7864;92.806;0;0;0;9665.8;1409.4;6.1689;0.014993;NaN;1497.2;NaN;0.0092862;594350;5;-7.1673e-6;0.86333;-2.4753e-4;0.58534;0.15798;0.12001;NaN;NaN;NaN;NaN;NaN;NaN;NaN;NaN;0;80.9;0.0051403;84.7;37;NaN;26.702;93133;347.48;2e-3;0.15975
0.15;0;0;-9.1744;0;9.2138;0;0;0;0;0;0.85109;-23.364;-48;9.7864;92.806;0;0;0;9665.8;1409.4;6.1689;0.014993;NaN;1497.2;NaN;0.0092872;594414;5.13;-7.1687e-6;0.86332;-2.4753e-4;0.58533;0.15798;0.12001;NaN;NaN;NaN;NaN;NaN;NaN;NaN;NaN;0;80.9;0.0051403;84.7;37;NaN;26.702;93133;347.48;2e-3;0.16162
0.152;0;0;-9.161;0;9.2004;0;0;0;0;0;0.84984;-23.364;-48;9.7864;92.806;0;0;0;9665.8;1409.4;6.1689;0.014993;NaN;1497.2;NaN;0.0092756;593671;5.26;-7.152e-6;0.86347;-2.4757e-4;0.58548;0.15798;0.12001;NaN;NaN;NaN;NaN;NaN;NaN;NaN;NaN;0;80.9;0.0051403;84.7;37;NaN;26.702;93133;347.48;2e-3;0.16338
0.154;0;0;-9.1489;0;9.1882;0;0;0;0;0;0.84872;-23.364;-48;9.7864;92.806;0;0;0;9665.8;1409.4;6.1689;0.014993;NaN;1497.2;NaN;0.0092639;592927;5.3781;-7.1354e-6;0.86362;-2.4761e-4;0.58563;0.15798;0.12001;NaN;NaN;NaN;NaN;NaN;NaN;NaN;NaN;0;80.9;0.0051403;84.7;37;NaN;26.702;93133;347.48;2e-3;0.16453
0.156;0;0;-9.1441;0;9.1833;0;0;0;0;0;0.84827;-23.364;-48;9.7864;92.806;0;0;0;9665.8;1409.4;6.1689;0.014993;NaN;1497.2;NaN;0.0092523;592184;5.4245;-7.1188e-6;0.86378;-2.4766e-4;0.58579;0.15798;0.12001;NaN;NaN;NaN;NaN;NaN;NaN;NaN;NaN;0;80.9;0.0051403;84.7;37;NaN;26.702;93133;347.48;2e-3;0.16603
0.158;0;0;-9.1405;0;9.1798;0;0;0;0;0;0.84794;-23.364;-48;9.7864;92.806;0;0;0;9665.8;1409.3;6.1689;0.014993;NaN;1497.2;NaN;0.0092407;591441;5.4591;-7.1022e-6;0.86393;-2.477e-4;0.58594;0.15798;0.12001;NaN;NaN;NaN;NaN;NaN;NaN;NaN;NaN;0;80.9;0.0051403;84.7;37;NaN;26.702;93133;347.48;2e-3;0.16716
0.16;0;0;-9.137;0;9.1762;0;0;0;0;0;0.84761;-23.364;-48;9.7864;92.806;0;0;0;9665.8;1409.3;6.1689;0.014993;NaN;1497.2;NaN;0.0092291;590697;5.4936;-7.0856e-6;0.86408;-2.4775e-4;0.5861;0.15798;0.12001;NaN;NaN;NaN;NaN;NaN;NaN;NaN;NaN;0;80.9;0.0051403;84.7;37;NaN;26.702;93133;347.48;2e-3;0.1683
0.162;0;0;-9.1334;0;9.1726;0;0;0;0;0;0.84728;-23.364;-48;9.7864;92.806;0;0;0;9665.8;1409.3;6.1689;0.014993;NaN;1497.2;NaN;0.0092175;589954;5.5282;-7.0691e-6;0.86424;-2.4779e-4;0.58625;0.15798;0.12001;NaN;NaN;NaN;NaN;NaN;NaN;NaN;NaN;0;80.9;0.0051403;84.7;37;NaN;26.702;93133;347.48;2e-3;0.16938
0.164;0;0;-9.1298;0;9.1691;0;0;0;0;0;0.84695;-23.364;-48;9.7864;92.806;0;0;0;9665.7;1409.3;6.1688;0.014993;NaN;1497.2;NaN;0.0092059;589210;5.5627;-7.0525e-6;0.86439;-2.4783e-4;0.58641;0.15798;0.12001;NaN;NaN;NaN;NaN;NaN;NaN;NaN;NaN;0;80.9;0.0051403;84.7;37;NaN;26.702;93133;347.48;2e-3;0.17164
0.166;0;0;-9.1263;0;9.1655;0;0;0;0;0;0.84662;-23.364;-48;9.7864;92.806;0;0;0;9665.7;1409.3;6.1688;0.014993;NaN;1497.2;NaN;0.0091943;588467;5.5973;-7.036e-6;0.86455;-2.4788e-4;0.58656;0.15798;0.12001;NaN;NaN;NaN;NaN;NaN;NaN;NaN;NaN;0;80.9;0.0051403;84.7;37;NaN;26.702;93133;347.48;2e-3;0.17398
0.168;0;0;-9.1227;0;9.1619;0;0;0;0;0;0.84629;-23.364;-48;9.7864;92.806;0;0;0;9665.7;1409.3;6.1688;0.014993;NaN;1497.2;NaN;0.0091826;587723;5.6318;-7.0195e-6;0.8647;-2.4792e-4;0.58672;0.15798;0.12001;NaN;NaN;NaN;NaN;NaN;NaN;NaN;NaN;0;80.9;0.0051403;84.7;37;NaN;26.702;93133;347.48;2e-3;0.17522
0.17;0;0;-9.1192;0;9.1583;0;0;0;0;0;0.84596;-23.364;-48;9.7864;92.806;0;0;0;9665.7;1409.3;6.1688;0.014993;NaN;1497.2;NaN;0.009171;586980;5.6664;-7.003e-6;0.86486;-2.4797e-4;0.58687;0.15798;0.12001;NaN;NaN;NaN;NaN;NaN;NaN;NaN;NaN;0;80.9;0.0051403;84.7;37;NaN;26.702;93133;347.48;2e-3;0.17636
0.172;0;0;-9.1156;0;9.1548;0;0;0;0;0;0.84563;-23.364;-48;9.7864;92.806;0;0;0;9665.7;1409.3;6.1688;0.014993;NaN;1497.2;NaN;0.0091594;586236;5.7009;-6.9865e-6;0.86502;-2.4801e-4;0.58703;0.15798;0.12001;NaN;NaN;NaN;NaN;NaN;NaN;NaN;NaN;0;80.9;0.0051403;84.7;37;NaN;26.702;93133;347.48;2e-3;0.17754
0.174;0;0;-9.1121;0;9.1512;0;0;0;0;0;0.8453;-23.364;-48;9.7864;92.806;0;0;0;9665.7;1409.3;6.1688;0.014993;NaN;1497.2;NaN;0.0091478;585493;5.7355;-6.9701e-6;0.86517;-2.4806e-4;0.58718;0.15798;0.12001;NaN;NaN;NaN;NaN;NaN;NaN;NaN;NaN;0;80.9;0.0051403;84.7;37;NaN;26.702;93133;347.48;2e-3;0.17871
0.176;0;0;-9.1074;0;9.1465;0;0;0;0;0;0.84487;-23.364;-48;9.7864;92.806;0;0;0;9665.7;1409.2;6.1688;0.014993;NaN;1497.2;NaN;0.0091362;584750;5.7809;-6.9536e-6;0.86533;-2.481e-4;0.58734;0.15798;0.12001;NaN;NaN;NaN;NaN;NaN;NaN;NaN;NaN;0;80.9;0.0051403;84.7;37;NaN;26.702;93133;347.48;2e-3;0.18022
0.178;0;0;-9.0959;0;9.135;0;0;0;0;0;0.84381;-23.364;-48;9.7864;92.806;0;0;0;9665.7;1409.2;6.1688;0.014993;NaN;1497.2;NaN;0.0091246;584006;5.8918;-6.9372e-6;0.86548;-2.4815e-4;0.5875;0.15798;0.12001;NaN;NaN;NaN;NaN;NaN;NaN;NaN;NaN;0;80.9;0.0051403;84.7;37;NaN;26.702;93133;347.48;2e-3;0.1813
0.18;0;0;-9.0834;0;9.1224;0;0;0;0;0;0.84264;-23.364;-48;9.7864;92.806;0;0;0;9665.7;1409.2;6.1688;0.014993;NaN;1497.2;NaN;0.0091129;583263;6.0136;-6.9208e-6;0.86564;-2.4819e-4;0.58765;0.15798;0.12001;NaN;NaN;NaN;NaN;NaN;NaN;NaN;NaN;0;80.9;0.0051403;84.7;37;NaN;26.702;93133;347.48;2e-3;0.18236
0.182;0;0;-9.0708;0;9.1098;0;0;0;0;0;0.84148;-23.364;-48;9.7864;92.806;0;0;0;9665.6;1409.2;6.1688;0.014993;NaN;1497.2;NaN;0.0091013;582519;6.1355;-6.9044e-6;0.8658;-2.4824e-4;0.58781;0.15798;0.12001;NaN;NaN;NaN;NaN;NaN;NaN;NaN;NaN;0;80.9;0.0051403;84.7;37;NaN;26.702;93133;347.48;2e-3;0.18345
0.184;0;0;-9.0583;0;9.0972;0;0;0;0;0;0.84031;-23.364;-48;9.7864;92.806;0;0;0;9665.6;1409.2;6.1688;0.014993;NaN;1497.2;NaN;0.0090897;581776;6.2573;-6.8881e-6;0.86596;-2.4828e-4;0.58797;0.15798;0.12001;NaN;NaN;NaN;NaN;NaN;NaN;NaN;NaN;0;80.9;0.0051403;84.7;37;NaN;26.702;93133;347.48;2e-3;0.18453
0.186;0;0;-9.0457;0;9.0846;0;0;0;0;0;0.83915;-23.364;-48;9.7864;92.806;0;0;0;9665.6;1409.2;6.1688;0.014993;NaN;1497.2;NaN;0.0090781;581032;6.3791;-6.8717e-6;0.86611;-2.4833e-4;0.58813;0.15798;0.12001;NaN;NaN;NaN;NaN;NaN;NaN;NaN;NaN;0;80.9;0.0051403;84.7;37;NaN;26.702;93133;347.48;2e-3;0.18562
0.188;0;0;-9.0332;0;9.072;0;0;0;0;0;0.83798;-23.364;-48;9.7864;92.806;0;0;0;9665.6;1409.2;6.1688;0.014993;NaN;1497.2;NaN;0.0090665;580289;6.5009;-6.8554e-6;0.86627;-2.4837e-4;0.58828;0.15798;0.12001;NaN;NaN;NaN;NaN;NaN;NaN;NaN;NaN;0;80.9;0.0051403;84.7;37;NaN;26.702;93133;347.48;2e-3;0.1871
0.19;0;0;-9.0206;0;9.0594;0;0;0;0;0;0.83682;-23.364;-48;9.7864;92.806;0;0;0;9665.6;1409.2;6.1688;0.014993;NaN;1497.2;NaN;0.0090549;579545;6.6227;-6.8391e-6;0.86643;-2.4842e-4;0.58844;0.15798;0.12001;NaN;NaN;NaN;NaN;NaN;NaN;NaN;NaN;0;80.9;0.0051403;84.7;37;NaN;26.702;93133;347.48;2e-3;0.18826
0.192;0;0;-9.0081;0;9.0468;0;0;0;0;0;0.83566;-23.364;-48;9.7864;92.806;0;0;0;9665.6;1409.1;6.1688;0.014993;NaN;1497.2;NaN;0.0090432;578802;6.7445;-6.8228e-6;0.86659;-2.4846e-4;0.5886;0.15798;0.12001;NaN;NaN;NaN;NaN;NaN;NaN;NaN;NaN;0;80.9;0.0051403;84.7;37;NaN;26.702;93133;347.48;2e-3;0.18985
0.194;0;0;-8.9955;0;9.0342;0;0;0;0;0;0.83449;-23.364;-48;9.7864;92.806;0;0;0;9665.6;1409.1;6.1688;0.014993;NaN;1497.2;NaN;0.0090316;578058;6.8664;-6.8066e-6;0.86675;-2.4851e-4;0.58876;0.15798;0.12001;NaN;NaN;NaN;NaN;NaN;NaN;NaN;NaN;0;80.9;0.0051403;84.7;37;NaN;26.702;93133;347.48;2e-3;0.19102
0.196;0;0;-8.983;0;9.0216;0;0;0;0;0;0.83333;-23.364;-48;9.7864;92.806;0;0;0;9665.6;1409.1;6.1688;0.014993;NaN;1497.2;NaN;0.00902;577315;6.9882;-6.7903e-6;0.86691;-2.4855e-4;0.58892;0.15798;0.12001;NaN;NaN;NaN;NaN;NaN;NaN;NaN;NaN;0;80.9;0.0051403;84.7;37;NaN;26.702;93133;347.48;2e-3;0.19222
0.198;0;0;-8.9735;0;9.0121;0;0;0;0;0;0.83245;-23.364;-48;9.7864;92.806;0;0;0;9665.5;1409.1;6.1688;0.014993;NaN;1497.2;NaN;0.0090084;576572;7.08;-6.7741e-6;0.86706;-2.486e-4;0.58908;0.15798;0.12001;NaN;NaN;NaN;NaN;NaN;NaN;NaN;NaN;0;80.9;0.0051403;84.7;37;NaN;26.702;93133;347.48;2e-3;0.19343
0.2;0;0;-8.9826;0;9.0212;0;0;0;0;0;0.83329;-23.364;-48;9.7864;92.806;0;0;0;9665.5;1409.1;6.1688;0.014993;NaN;1497.2;NaN;0.0089968;575828;6.9917;-6.7579e-6;0.86722;-2.4865e-4;0.58924;0.15798;0.12001;NaN;NaN;NaN;NaN;NaN;NaN;NaN;NaN;0;80.9;0.0051403;84.7;37;NaN;26.702;93133;347.48;2e-3;0.19537
0.202;0;0;-8.9948;0;9.0334;0;0;0;0;0;0.83442;-23.364;-48;9.7864;92.806;0;0;0;9665.5;1409.1;6.1688;0.014993;NaN;1497.2;NaN;0.0089838;574995;6.8735;-6.7397e-6;0.8674;-2.487e-4;0.58942;0.15798;0.12001;NaN;NaN;NaN;NaN;NaN;NaN;NaN;NaN;0;80.9;0.0051403;84.7;37;NaN;26.702;93133;347.48;2e-3;0.19706
0.204;0;0;-9.007;0;9.0457;0;0;0;0;0;0.83555;-23.364;-48;9.7864;92.806;0;0;0;9665.5;1409.1;6.1688;0.014993;NaN;1497.2;NaN;0.0089708;574162;6.7552;-6.7216e-6;0.86758;-2.4875e-4;0.5896;0.15798;0.12001;NaN;NaN;NaN;NaN;NaN;NaN;NaN;NaN;0;80.9;0.0051403;84.7;37;NaN;26.702;93133;347.48;2e-3;0.19826
0.206;0;0;-9.0192;0;9.0579;0;0;0;0;0;0.83668;-23.364;-48;9.7864;92.806;0;0;0;9665.5;1409.1;6.1688;0.014993;NaN;1497.2;NaN;0.0089577;573329;6.637;-6.7035e-6;0.86776;-2.488e-4;0.58977;0.15798;0.12001;NaN;NaN;NaN;NaN;NaN;NaN;NaN;NaN;0;80.9;0.0051403;84.7;37;NaN;26.702;93133;347.48;2e-3;0.19951
0.208;0;0;-9.0314;0;9.0701;0;0;0;0;0;0.83781;-23.364;-48;9.7864;92.806;0;0;0;9665.5;1409;6.1688;0.014993;NaN;1497.2;NaN;0.0089447;572496;6.5187;-6.6854e-6;0.86794;-2.4885e-4;0.58996;0.15798;0.12001;NaN;NaN;NaN;NaN;NaN;NaN;NaN;NaN;0;80.9;0.0051403;84.7;37;NaN;26.702;93133;347.48;2e-3;0.20071
0.21;0;0;-9.0435;0;9.0824;0;0;0;0;0;0.83894;-23.364;-48;9.7864;92.806;0;0;0;9665.5;1409;6.1687;0.014993;NaN;1497.2;NaN;0.0089317;571663;6.4004;-6.6673e-6;0.86812;-2.489e-4;0.59014;0.15798;0.12001;NaN;NaN;NaN;NaN;NaN;NaN;NaN;NaN;0;80.9;0.0051403;84.7;37;NaN;26.702;93133;347.48;2e-3;0.20188
0.212;0;0;-9.0557;0;9.0946;0;0;0;0;0;0.84007;-23.364;-48;9.7864;92.806;0;0;0;9665.5;1409;6.1687;0.014993;NaN;1497.1;NaN;0.0089187;570830;6.2822;-6.6493e-6;0.8683;-2.4896e-4;0.59032;0.15798;0.12001;NaN;NaN;NaN;NaN;NaN;NaN;NaN;NaN;0;80.9;0.0051403;84.7;37;NaN;26.702;93133;347.48;2e-3;0.20304
0.214;0;0;-9.0679;0;9.1068;0;0;0;0;0;0.8412;-23.364;-48;9.7864;92.806;0;0;0;9665.4;1409;6.1687;0.014993;NaN;1497.1;NaN;0.0089057;5.7e5;6.1639;-6.6313e-6;0.86848;-2.4901e-4;0.5905;0.15798;0.12001;NaN;NaN;NaN;NaN;NaN;NaN;NaN;NaN;0;80.9;0.0051403;84.7;37;NaN;26.702;93133;347.48;2e-3;0.20469
0.216;0;0;-9.0801;0;9.1191;0;0;0;0;0;0.84233;-23.364;-48;9.7864;92.806;0;0;0;9665.4;1409;6.1687;0.014993;NaN;1497.1;NaN;0.0088927;569164;6.0457;-6.6133e-6;0.86867;-2.4906e-4;0.59068;0.15798;0.12001;NaN;NaN;NaN;NaN;NaN;NaN;NaN;NaN;0;80.9;0.0051403;84.7;37;NaN;26.702;93133;347.48;2e-3;0.20629
0.218;0;0;-9.0923;0;9.1313;0;0;0;0;0;0.84346;-23.364;-48;9.7864;92.806;0;0;0;9665.4;1409;6.1687;0.014993;NaN;1497.1;NaN;0.0088797;568331;5.9274;-6.5954e-6;0.86885;-2.4911e-4;0.59086;0.15798;0.12001;NaN;NaN;NaN;NaN;NaN;NaN;NaN;NaN;0;80.9;0.0051403;84.7;37;NaN;26.702;93133;347.48;2e-3;0.20749
0.22;0;0;-9.1044;0;9.1435;0;0;0;0;0;0.84459;-23.364;-48;9.7864;92.806;0;0;0;9665.4;1409;6.1687;0.014993;NaN;1497.1;NaN;0.0088666;567498;5.8091;-6.5774e-6;0.86903;-2.4916e-4;0.59104;0.15798;0.12001;NaN;NaN;NaN;NaN;NaN;NaN;NaN;NaN;0;80.9;0.0051403;84.7;37;NaN;26.702;93133;347.48;2e-3;0.20896
0.222;0;0;-9.1075;0;9.1466;0;0;0;0;0;0.84488;-23.364;-48;9.7864;92.806;0;0;0;9665.4;1408.9;6.1687;0.014993;NaN;1497.1;NaN;0.0088536;566665;5.779;-6.5595e-6;0.86921;-2.4922e-4;0.59123;0.15798;0.12001;NaN;NaN;NaN;NaN;NaN;NaN;NaN;NaN;0;80.9;0.0051403;84.7;37;NaN;26.702;93133;347.48;2e-3;0.21066
0.224;0;0;-9.1016;0;9.1406;0;0;0;0;0;0.84433;-23.364;-48;9.7864;92.806;0;0;0;9665.4;1408.9;6.1687;0.014993;NaN;1497.1;NaN;0.0088406;565832;5.8371;-6.5416e-6;0.86939;-2.4927e-4;0.59141;0.15798;0.12001;NaN;NaN;NaN;NaN;NaN;NaN;NaN;NaN;0;80.9;0.0051403;84.7;37;NaN;26.702;93133;347.48;2e-3;0.21197
0.226;0;0;-9.0956;0;9.1346;0;0;0;0;0;0.84377;-23.364;-48;9.7864;92.806;0;0;0;9665.4;1408.9;6.1687;0.014993;NaN;1497.1;NaN;0.0088276;564999;5.8952;-6.5237e-6;0.86958;-2.4932e-4;0.59159;0.15798;0.12001;NaN;NaN;NaN;NaN;NaN;NaN;NaN;NaN;0;80.9;0.0051403;84.7;37;NaN;26.702;93133;347.48;2e-3;0.21303
0.228;0;0;-9.0896;0;9.1286;0;0;0;0;0;0.84322;-23.364;-48;9.7864;92.806;0;0;0;9665.4;1408.9;6.1687;0.014993;NaN;1497.1;NaN;0.0088146;564166;5.9533;-6.5059e-6;0.86976;-2.4937e-4;0.59178;0.15798;0.12001;NaN;NaN;NaN;NaN;NaN;NaN;NaN;NaN;0;80.9;0.0051403;84.7;37;NaN;26.702;93133;347.48;2e-3;0.21407
0.23;0;0;-9.0836;0;9.1226;0;0;0;0;0;0.84266;-23.364;-48;9.7864;92.806;0;0;0;9665.3;1408.9;6.1687;0.014993;NaN;1497.1;NaN;0.0088016;563333;6.0114;-6.4881e-6;0.86995;-2.4943e-4;0.59196;0.15798;0.12001;NaN;NaN;NaN;NaN;NaN;NaN;NaN;NaN;0;80.9;0.0051403;84.7;37;NaN;26.702;93133;347.48;2e-3;0.21526
0.232;0;0;-9.0776;0;9.1166;0;0;0;0;0;0.8421;-23.364;-48;9.7864;92.806;0;0;0;9665.3;1408.9;6.1687;0.014993;NaN;1497.1;NaN;0.0087885;562500;6.0695;-6.4703e-6;0.87013;-2.4948e-4;0.59214;0.15798;0.12001;NaN;NaN;NaN;NaN;NaN;NaN;NaN;NaN;0;80.9;0.0051403;84.7;37;NaN;26.702;93133;347.48;2e-3;0.21691
0.234;0;0;-9.0716;0;9.1106;0;0;0;0;0;0.84155;-23.364;-48;9.7864;92.806;0;0;0;9665.3;1408.9;6.1687;0.014993;NaN;1497.1;NaN;0.0087755;561667;6.1276;-6.4525e-6;0.87031;-2.4953e-4;0.59233;0.15798;0.12001;NaN;NaN;NaN;NaN;NaN;NaN;NaN;NaN;0;80.9;0.0051403;84.7;37;NaN;26.702;93133;347.48;2e-3;0.21797
0.236;0;0;-9.0656;0;9.1046;0;0;0;0;0;0.84099;-23.364;-48;9.7864;92.806;0;0;0;9665.3;1408.9;6.1687;0.014993;NaN;1497.1;NaN;0.0087625;560834;6.1857;-6.4347e-6;0.8705;-2.4959e-4;0.59251;0.15798;0.12001;NaN;NaN;NaN;NaN;NaN;NaN;NaN;NaN;0;80.9;0.0051403;84.7;37;NaN;26.702;93133;347.48;2e-3;0.21902
0.238;0;0;-9.0597;0;9.0986;0;0;0;0;0;0.84044;-23.364;-48;9.7864;92.806;0;0;0;9665.3;1408.9;6.1687;0.014993;NaN;1497.1;NaN;0.0087495;5.6e5;6.2438;-6.417e-6;0.87068;-2.4964e-4;0.5927;0.15798;0.12001;NaN;NaN;NaN;NaN;NaN;NaN;NaN;NaN;0;80.9;0.0051403;84.7;37;NaN;26.702;93133;347.48;2e-3;0.22019
0.24;0;0;-9.0537;0;9.0925;0;0;0;0;0;0.83988;-23.364;-48;9.7864;92.806;0;0;0;9665.3;1408.8;6.1687;0.014993;NaN;1497.1;NaN;0.0087365;559168;6.3019;-6.3993e-6;0.87087;-2.4969e-4;0.59288;0.15798;0.12001;NaN;NaN;NaN;NaN;NaN;NaN;NaN;NaN;0;80.9;0.0051403;84.7;37;NaN;26.702;93133;347.48;2e-3;0.22137
0.242;0;0;-9.0503;0;9.0892;0;0;0;0;0;0.83957;-23.364;-48;9.7864;92.806;0;0;0;9665.3;1408.8;6.1687;0.014993;NaN;1497.1;NaN;0.0087235;558335;6.3345;-6.3816e-6;0.87106;-2.4975e-4;0.59307;0.15798;0.12001;NaN;NaN;NaN;NaN;NaN;NaN;NaN;NaN;0;80.9;0.0051403;84.7;37;NaN;26.702;93133;347.48;2e-3;0.22349
0.244;0;0;-9.0627;0;9.1016;0;0;0;0;0;0.84072;-23.364;-48;9.7864;92.806;0;0;0;9665.3;1408.8;6.1687;0.014993;NaN;1497.1;NaN;0.0087105;557502;6.2139;-6.3639e-6;0.87124;-2.498e-4;0.59326;0.15798;0.12001;NaN;NaN;NaN;NaN;NaN;NaN;NaN;NaN;0;80.9;0.0051403;84.7;37;NaN;26.702;93133;347.48;2e-3;0.2247
0.246;0;0;-9.0778;0;9.1168;0;0;0;0;0;0.84212;-23.364;-48;9.7864;92.806;0;0;0;9665.2;1408.8;6.1687;0.014993;NaN;1497.1;NaN;0.0086974;556669;6.0678;-6.3463e-6;0.87143;-2.4985e-4;0.59344;0.15798;0.12001;NaN;NaN;NaN;NaN;NaN;NaN;NaN;NaN;0;80.9;0.0051403;84.7;37;NaN;26.702;93133;347.48;2e-3;0.22586
0.248;0;0;-9.0928;0;9.1319;0;0;0;0;0;0.84352;-23.364;-48;9.7864;92.806;0;0;0;9665.2;1408.8;6.1687;0.014993;NaN;1497.1;NaN;0.0086844;555836;5.9217;-6.3287e-6;0.87162;-2.4991e-4;0.59363;0.15798;0.12001;NaN;NaN;NaN;NaN;NaN;NaN;NaN;NaN;0;80.9;0.0051403;84.7;37;NaN;26.702;93133;347.48;2e-3;0.22705
0.25;0;0;-9.1079;0;9.147;0;0;0;0;0;0.84491;-23.364;-48;9.7864;92.806;0;0;0;9665.2;1408.8;6.1687;0.014993;NaN;1497.1;NaN;0.0086714;555003;5.7757;-6.3111e-6;0.8718;-2.4996e-4;0.59382;0.15798;0.12001;NaN;NaN;NaN;NaN;NaN;NaN;NaN;NaN;0;80.9;0.0051403;84.7;37;NaN;26.702;93133;347.48;2e-3;0.22819
0.252;0;0;-9.1229;0;9.1621;0;0;0;0;0;0.84631;-23.364;-48;9.7864;92.806;0;0;0;9665.2;1408.8;6.1687;0.014993;NaN;1497.1;NaN;0.0086498;553621;5.6296;-6.2819e-6;0.87212;-2.5005e-4;0.59413;0.15798;0.12001;NaN;NaN;NaN;NaN;NaN;NaN;NaN;NaN;0;80.9;0.0051403;84.7;37;NaN;26.702;93133;347.48;2e-3;0.22935
0.254;0;0;-9.138;0;9.1772;0;0;0;0;0;0.8477;-23.364;-48;9.7864;92.806;0;0;0;9665.2;1408.8;6.1687;0.014993;NaN;1497.1;NaN;0.0086282;552239;5.4835;-6.2528e-6;0.87243;-2.5014e-4;0.59444;0.15798;0.12001;NaN;NaN;NaN;NaN;NaN;NaN;NaN;NaN;0;80.9;0.0051403;84.7;37;NaN;26.702;93133;347.48;2e-3;0.23113
0.256;0;0;-9.153;0;9.1923;0;0;0;0;0;0.8491;-23.364;-48;9.7864;92.806;0;0;0;9665.2;1408.8;6.1687;0.014993;NaN;1497.1;NaN;0.0086066;550856;5.3374;-6.2238e-6;0.87274;-2.5023e-4;0.59476;0.15798;0.12001;NaN;NaN;NaN;NaN;NaN;NaN;NaN;NaN;0;80.9;0.0051403;84.7;37;NaN;26.702;93133;347.48;2e-3;0.23228
0.258;0;0;-9.1681;0;9.2074;0;0;0;0;0;0.8505;-23.364;-48;9.7864;92.806;0;0;0;9665.2;1408.7;6.1686;0.014993;NaN;1497.1;NaN;0.008585;549474;5.1913;-6.1948e-6;0.87306;-2.5032e-4;0.59507;0.15798;0.12001;NaN;NaN;NaN;NaN;NaN;NaN;NaN;NaN;0;80.9;0.0051403;84.7;37;NaN;26.702;93133;347.48;2e-3;0.23343
0.26;0;0;-9.1831;0;9.2226;0;0;0;0;0;0.85189;-23.364;-48;9.7864;92.806;0;0;0;9665.2;1408.7;6.1686;0.014993;NaN;1497.1;NaN;0.0085634;548092;5.0452;-6.1659e-6;0.87338;-2.5041e-4;0.59539;0.15798;0.12001;NaN;NaN;NaN;NaN;NaN;NaN;NaN;NaN;0;80.9;0.0051403;84.7;37;NaN;26.702;93133;347.48;2e-3;0.23458
0.262;0;0;-9.1982;0;9.2377;0;0;0;0;0;0.85329;-23.364;-48;9.7864;92.806;0;0;0;9665.2;1408.7;6.1686;0.014993;NaN;1497.1;NaN;0.0085418;546709;4.8991;-6.1371e-6;0.87369;-2.505e-4;0.59571;0.15798;0.12001;NaN;NaN;NaN;NaN;NaN;NaN;NaN;NaN;0;80.9;0.0051403;84.7;37;NaN;26.702;93133;347.48;2e-3;0.2357
0.264;0;0;-9.2132;0;9.2528;0;0;0;0;0;0.85469;-23.364;-48;9.7864;92.806;0;0;0;9665.1;1408.7;6.1686;0.014993;NaN;1497.1;NaN;0.0085202;545327;4.753;-6.1083e-6;0.87401;-2.5059e-4;0.59603;0.15798;0.12001;NaN;NaN;NaN;NaN;NaN;NaN;NaN;NaN;0;80.9;0.0051403;84.7;37;NaN;26.702;93133;347.48;2e-3;0.23761
0.266;0;0;-9.2098;0;9.2494;0;0;0;0;0;0.85437;-23.364;-48;9.7864;92.806;0;0;0;9665.1;1408.7;6.1686;0.014993;NaN;1497.1;NaN;0.0084986;543945;4.7859;-6.0796e-6;0.87433;-2.5068e-4;0.59634;0.15798;0.12001;NaN;NaN;NaN;NaN;NaN;NaN;NaN;NaN;0;80.9;0.0051403;84.7;37;NaN;26.702;93133;347.48;2e-3;0.23949
0.268;0;0;-9.188;0;9.2275;0;0;0;0;0;0.85235;-23.364;-48;9.7864;92.806;0;0;0;9665.1;1408.7;6.1686;0.014993;NaN;1497.1;NaN;0.008477;542562;4.9977;-6.051e-6;0.87465;-2.5078e-4;0.59667;0.15798;0.12001;NaN;NaN;NaN;NaN;NaN;NaN;NaN;NaN;0;80.9;0.0051403;84.7;37;NaN;26.702;93133;347.48;2e-3;0.24065
0.27;0;0;-9.1662;0;9.2056;0;0;0;0;0;0.85032;-23.364;-48;9.7864;92.806;0;0;0;9665.1;1408.7;6.1686;0.014993;NaN;1497.1;NaN;0.0084554;541180;5.2095;-6.0224e-6;0.87497;-2.5087e-4;0.59699;0.15798;0.12001;NaN;NaN;NaN;NaN;NaN;NaN;NaN;NaN;0;80.9;0.0051403;84.7;37;NaN;26.702;93133;347.48;2e-3;0.24171
0.272;0;0;-9.1444;0;9.1836;0;0;0;0;0;0.8483;-23.364;-48;9.7864;92.806;0;0;0;9665.1;1408.7;6.1686;0.014993;NaN;1497.1;NaN;0.0084338;539798;5.4214;-5.9939e-6;0.87529;-2.5096e-4;0.59731;0.15798;0.12001;NaN;NaN;NaN;NaN;NaN;NaN;NaN;NaN;0;80.9;0.0051403;84.7;37;NaN;26.702;93133;347.48;2e-3;0.24278
0.274;0;0;-9.1226;0;9.1617;0;0;0;0;0;0.84627;-23.364;-48;9.7864;92.806;0;0;0;9665.1;1408.6;6.1686;0.014993;NaN;1497.1;NaN;0.0084122;538415;5.6332;-5.9654e-6;0.87562;-2.5105e-4;0.59763;0.15798;0.12001;NaN;NaN;NaN;NaN;NaN;NaN;NaN;NaN;0;80.9;0.0051403;84.7;37;NaN;26.702;93133;347.48;2e-3;0.24385
0.276;0;0;-9.1007;0;9.1398;0;0;0;0;0;0.84425;-23.364;-48;9.7864;92.806;0;0;0;9665.1;1408.6;6.1686;0.014993;NaN;1497.1;NaN;0.0083906;537033;5.845;-5.937e-6;0.87594;-2.5115e-4;0.59796;0.15798;0.12001;NaN;NaN;NaN;NaN;NaN;NaN;NaN;NaN;0;80.9;0.0051403;84.7;37;NaN;26.702;93133;347.48;2e-3;0.24529
0.278;0;0;-9.0789;0;9.1179;0;0;0;0;0;0.84222;-23.364;-48;9.7864;92.806;0;0;0;9665.1;1408.6;6.1686;0.014993;NaN;1497.1;NaN;0.008369;535651;6.0568;-5.9087e-6;0.87627;-2.5124e-4;0.59828;0.15798;0.12001;NaN;NaN;NaN;NaN;NaN;NaN;NaN;NaN;0;80.9;0.0051403;84.7;37;NaN;26.702;93133;347.48;2e-3;0.24643
0.28;0;0;-9.0571;0;9.096;0;0;0;0;0;0.8402;-23.364;-48;9.7864;92.806;0;0;0;9665.1;1408.6;6.1686;0.014993;NaN;1497.1;NaN;0.0083475;534268;6.2686;-5.8804e-6;0.8766;-2.5133e-4;0.59861;0.15798;0.12001;NaN;NaN;NaN;NaN;NaN;NaN;NaN;NaN;0;80.9;0.0051403;84.7;37;NaN;26.702;93133;347.48;2e-3;0.24748
0.282;0;0;-9.0353;0;9.0741;0;0;0;0;0;0.83818;-23.364;-48;9.7864;92.806;0;0;0;9665;1408.6;6.1686;0.014993;NaN;1497.1;NaN;0.0083259;532886;6.4805;-5.8522e-6;0.87692;-2.5143e-4;0.59894;0.15798;0.12001;NaN;NaN;NaN;NaN;NaN;NaN;NaN;NaN;0;80.9;0.0051403;84.7;37;NaN;26.702;93133;347.48;2e-3;0.24856
0.284;0;0;-9.0134;0;9.0521;0;0;0;0;0;0.83615;-23.364;-48;9.7864;92.806;0;0;0;9665;1408.6;6.1686;0.014993;NaN;1497.1;NaN;0.0083043;531504;6.6923;-5.8241e-6;0.87725;-2.5152e-4;0.59927;0.15798;0.12001;NaN;NaN;NaN;NaN;NaN;NaN;NaN;NaN;0;80.9;0.0051403;84.7;37;NaN;26.702;93133;347.48;2e-3;0.24968
0.286;0;0;-8.9916;0;9.0302;0;0;0;0;0;0.83413;-23.364;-48;9.7864;92.806;0;0;0;9665;1408.6;6.1686;0.014993;NaN;1497.1;NaN;0.0082827;530121;6.9041;-5.796e-6;0.87758;-2.5162e-4;0.5996;0.15798;0.12001;NaN;NaN;NaN;NaN;NaN;NaN;NaN;NaN;0;80.9;0.0051403;84.7;37;NaN;26.702;93133;347.48;2e-3;0.25085
0.288;0;0;-8.9716;0;9.0101;0;0;0;0;0;0.83227;-23.364;-48;9.7864;92.806;0;0;0;9665;1408.6;6.1686;0.014993;NaN;1497.1;NaN;0.0082611;528739;7.0982;-5.768e-6;0.87792;-2.5171e-4;0.59993;0.15798;0.12001;NaN;NaN;NaN;NaN;NaN;NaN;NaN;NaN;0;80.9;0.0051403;84.7;37;NaN;26.702;93133;347.48;2e-3;0.25193
0.29;0;0;-8.9534;0;8.9919;0;0;0;0;0;0.83059;-23.364;-48;9.7864;92.806;0;0;0;9665;1408.6;6.1686;0.014993;NaN;1497.1;NaN;0.0082395;527357;7.2745;-5.7401e-6;0.87825;-2.5181e-4;0.60026;0.15798;0.12001;NaN;NaN;NaN;NaN;NaN;NaN;NaN;NaN;0;80.9;0.0051403;84.7;37;NaN;26.702;93133;347.48;2e-3;0.25301
0.292;0;0;-8.9353;0;8.9736;0;0;0;0;0;0.8289;-23.364;-48;9.7864;92.806;0;0;0;9665;1408.5;6.1686;0.014993;NaN;1497.1;NaN;0.0082179;525974;7.4509;-5.7122e-6;0.87858;-2.519e-4;0.6006;0.15798;0.12001;NaN;NaN;NaN;NaN;NaN;NaN;NaN;NaN;0;80.9;0.0051403;84.7;37;NaN;26.702;93133;347.48;2e-3;0.25468
0.294;0;0;-8.9171;0;8.9554;0;0;0;0;0;0.82721;-23.364;-48;9.7864;92.806;0;0;0;9665;1408.5;6.1686;0.014993;NaN;1497.1;NaN;0.0081963;524592;7.6273;-5.6844e-6;0.87892;-2.52e-4;0.60093;0.15798;0.12001;NaN;NaN;NaN;NaN;NaN;NaN;NaN;NaN;0;80.9;0.0051403;84.7;37;NaN;26.702;93133;347.48;2e-3;0.25619
0.296;0;0;-8.8989;0;8.9371;0;0;0;0;0;0.82553;-23.364;-48;9.7864;92.806;0;0;0;9664.9;1408.5;6.1686;0.014993;NaN;1497.1;NaN;0.0081747;523210;7.8036;-5.6566e-6;0.87925;-2.521e-4;0.60127;0.15798;0.12001;NaN;NaN;NaN;NaN;NaN;NaN;NaN;NaN;0;80.9;0.0051403;84.7;37;NaN;26.702;93133;347.48;2e-3;0.25754
0.298;0;0;-8.8808;0;8.9189;0;0;0;0;0;0.82384;-23.364;-48;9.7864;92.806;0;0;0;9664.9;1408.5;6.1686;0.014993;NaN;1497.1;NaN;0.0081531;521828;7.98;-5.6289e-6;0.87959;-2.5219e-4;0.60161;0.15798;0.12001;NaN;NaN;NaN;NaN;NaN;NaN;NaN;NaN;0;80.9;0.0051403;84.7;37;NaN;26.702;93133;347.48;2e-3;0.2589
0.3;0;0;-8.8626;0;8.9006;0;0;0;0;0;0.82216;-23.364;-48;9.7864;92.806;0;0;0;9664.9;1408.5;6.1686;0.014993;NaN;1497.1;NaN;0.0081315;520445;8.1564;-5.6013e-6;0.87993;-2.5229e-4;0.60194;0.15798;0.12001;NaN;NaN;NaN;NaN;NaN;NaN;NaN;NaN;0;80.9;0.0051403;84.7;37;NaN;26.702;93133;347.48;2e-3;0.26067
0.302;0;0;-8.8444;0;8.8824;0;0;0;0;0;0.82047;-23.364;-48;9.7864;92.806;0;0;0;9664.9;1408.5;6.1685;0.014993;NaN;1497.1;NaN;0.0081613;522355;8.3327;-5.6395e-6;0.87946;-2.5215e-4;0.60148;0.15798;0.12001;NaN;NaN;NaN;NaN;NaN;NaN;NaN;NaN;0;80.9;0.0051403;84.7;37;NaN;26.702;93133;347.48;2e-3;0.26188
0.304;0;0;-8.8262;0;8.8641;0;0;0;0;0;0.81879;-23.364;-48;9.7864;92.806;0;0;0;9664.9;1408.4;6.1685;0.014993;NaN;1497.1;NaN;0.0081912;524265;8.5091;-5.6778e-6;0.879;-2.5202e-4;0.60101;0.15798;0.12001;NaN;NaN;NaN;NaN;NaN;NaN;NaN;NaN;0;80.9;0.0051403;84.7;37;NaN;26.702;93133;347.48;2e-3;0.2631
0.306;0;0;-8.8081;0;8.8459;0;0;0;0;0;0.8171;-23.364;-48;9.7864;92.806;0;0;0;9664.9;1408.4;6.1685;0.014993;NaN;1497.1;NaN;0.008221;526176;8.6855;-5.7163e-6;0.87853;-2.5189e-4;0.60055;0.15798;0.12001;NaN;NaN;NaN;NaN;NaN;NaN;NaN;NaN;0;80.9;0.0051403;84.7;37;NaN;26.702;93133;347.48;2e-3;0.26487
0.308;0;0;-8.7899;0;8.8276;0;0;0;0;0;0.81541;-23.364;-48;9.7864;92.806;0;0;0;9664.9;1408.4;6.1685;0.014993;NaN;1497.1;NaN;0.0082509;528086;8.8618;-5.7548e-6;0.87807;-2.5176e-4;0.60009;0.15798;0.12001;NaN;NaN;NaN;NaN;NaN;NaN;NaN;NaN;0;80.9;0.0051403;84.7;37;NaN;26.702;93133;347.48;2e-3;0.26687
0.31;0;0;-8.7726;0;8.8103;0;0;0;0;0;0.81381;-23.364;-48;9.7864;92.806;0;0;0;9664.8;1408.4;6.1685;0.014993;NaN;1497.1;NaN;0.0082807;5.3e5;9.0295;-5.7935e-6;0.87761;-2.5163e-4;0.59963;0.15798;0.12001;NaN;NaN;NaN;NaN;NaN;NaN;NaN;NaN;0;80.9;0.0051403;84.7;37;NaN;26.702;93133;347.48;2e-3;0.268
0.312;0;0;-8.7562;0;8.7938;0;0;0;0;0;0.81229;-23.364;-48;9.7864;92.806;0;0;0;9664.8;1408.4;6.1685;0.014993;NaN;1497.1;NaN;0.0083105;531906;9.1886;-5.8323e-6;0.87716;-2.5149e-4;0.59917;0.15798;0.12001;NaN;NaN;NaN;NaN;NaN;NaN;NaN;NaN;0;80.9;0.0051403;84.7;37;NaN;26.702;93133;347.48;2e-3;0.26903
0.314;0;0;-8.7398;0;8.7774;0;0;0;0;0;0.81077;-23.364;-48;9.7864;92.806;0;0;0;9664.8;1408.4;6.1685;0.014993;NaN;1497.1;NaN;0.0083404;533816;9.3477;-5.8712e-6;0.8767;-2.5136e-4;0.59872;0.15798;0.12001;NaN;NaN;NaN;NaN;NaN;NaN;NaN;NaN;0;80.9;0.0051403;84.7;37;NaN;26.702;93133;347.48;2e-3;0.27027
0.316;0;0;-8.7234;0;8.7609;0;0;0;0;0;0.80925;-23.364;-48;9.7864;92.806;0;0;0;9664.8;1408.3;6.1685;0.014993;NaN;1497.1;NaN;0.0083702;535726;9.5068;-5.9103e-6;0.87625;-2.5123e-4;0.59827;0.15798;0.12001;NaN;NaN;NaN;NaN;NaN;NaN;NaN;NaN;0;80.9;0.0051403;84.7;37;NaN;26.702;93133;347.48;2e-3;0.27226
0.318;0;0;-8.7071;0;8.7444;0;0;0;0;0;0.80773;-23.364;-48;9.7864;92.806;0;0;0;9664.8;1408.3;6.1685;0.014993;NaN;1497.1;NaN;0.0084001;537636;9.6659;-5.9494e-6;0.8758;-2.5111e-4;0.59782;0.15798;0.12001;NaN;NaN;NaN;NaN;NaN;NaN;NaN;NaN;0;80.9;0.0051403;84.7;37;NaN;26.702;93133;347.48;2e-3;0.27401
0.32;0;0;-8.6907;0;8.728;0;0;0;0;0;0.80621;-23.364;-48;9.7864;92.806;0;0;0;9664.7;1408.3;6.1685;0.014993;NaN;1497.1;NaN;0.0084299;539547;9.825;-5.9887e-6;0.87535;-2.5098e-4;0.59737;0.15798;0.12001;NaN;NaN;NaN;NaN;NaN;NaN;NaN;NaN;0;80.9;0.0051403;84.7;37;NaN;26.702;93133;347.48;2e-3;0.27504
0.322;0;0;-8.6743;0;8.7115;0;0;0;0;0;0.80469;-23.364;-48;9.7864;92.806;0;0;0;9664.7;1408.3;6.1685;0.014993;NaN;1497.1;NaN;0.0084598;541457;9.9841;-6.0281e-6;0.87491;-2.5085e-4;0.59692;0.15798;0.12001;NaN;NaN;NaN;NaN;NaN;NaN;NaN;NaN;0;80.9;0.0051403;84.7;37;NaN;26.702;93133;347.48;2e-3;0.27609
0.324;0;0;-8.6579;0;8.6951;0;0;0;0;0;0.80317;-23.364;-48;9.7864;92.806;0;0;0;9664.7;1408.3;6.1685;0.014993;NaN;1497.1;NaN;0.0084896;543367;10.143;-6.0676e-6;0.87446;-2.5072e-4;0.59648;0.15798;0.12001;NaN;NaN;NaN;NaN;NaN;NaN;NaN;NaN;0;80.9;0.0051403;84.7;37;NaN;26.702;93133;347.48;2e-3;0.27714
0.326;0;0;-8.6415;0;8.6786;0;0;0;0;0;0.80165;-23.364;-48;9.7864;92.806;0;0;0;9664.7;1408.2;6.1685;0.014993;NaN;1497.1;NaN;0.0085194;545277;10.302;-6.1073e-6;0.87402;-2.506e-4;0.59604;0.15798;0.12001;NaN;NaN;NaN;NaN;NaN;NaN;NaN;NaN;0;80.9;0.0051403;84.7;37;NaN;26.702;93133;347.48;2e-3;0.27847
0.328;0;0;-8.6251;0;8.6621;0;0;0;0;0;0.80013;-23.364;-48;9.7864;92.806;0;0;0;9664.7;1408.2;6.1685;0.014993;NaN;1497.1;NaN;0.0085493;547187;10.461;-6.1471e-6;0.87358;-2.5047e-4;0.5956;0.15798;0.12001;NaN;NaN;NaN;NaN;NaN;NaN;NaN;NaN;0;80.9;0.0051403;84.7;37;NaN;26.702;93133;347.48;2e-3;0.27961
0.33;0;0;-8.6087;0;8.6457;0;0;0;0;0;0.7986;-23.364;-48;9.7864;92.806;0;0;0;9664.6;1408.2;6.1685;0.014993;NaN;1497.1;NaN;0.0085791;549097;10.62;-6.1869e-6;0.87315;-2.5034e-4;0.59516;0.15798;0.12001;NaN;NaN;NaN;NaN;NaN;NaN;NaN;NaN;0;80.9;0.0051403;84.7;37;NaN;26.702;93133;347.48;2e-3;0.28122
0.332;0;0;-8.5947;0;8.6316;0;0;0;0;0;0.79731;-23.364;-48;9.7864;92.806;0;0;0;9664.6;1408.2;6.1684;0.014993;NaN;1497.1;NaN;0.008609;551007;10.756;-6.227e-6;0.87271;-2.5022e-4;0.59472;0.15798;0.12001;NaN;NaN;NaN;NaN;NaN;NaN;NaN;NaN;0;80.9;0.0051403;84.7;37;NaN;26.702;93133;347.48;2e-3;0.28241
0.334;0;0;-8.5832;0;8.62;0;0;0;0;0;0.79624;-23.364;-48;9.7864;92.806;0;0;0;9664.6;1408.2;6.1684;0.014993;NaN;1497.1;NaN;0.0086388;552917;10.868;-6.2671e-6;0.87228;-2.5009e-4;0.59429;0.15798;0.12001;NaN;NaN;NaN;NaN;NaN;NaN;NaN;NaN;0;80.9;0.0051403;84.7;37;NaN;26.702;93133;347.48;2e-3;0.28348
0.336;0;0;-8.5716;0;8.6084;0;0;0;0;0;0.79516;-23.364;-48;9.7864;92.806;0;0;0;9664.6;1408.1;6.1684;0.014993;NaN;1497.1;NaN;0.0086687;554828;10.98;-6.3073e-6;0.87184;-2.4997e-4;0.59386;0.15798;0.12001;NaN;NaN;NaN;NaN;NaN;NaN;NaN;NaN;0;80.9;0.0051403;84.7;37;NaN;26.702;93133;347.48;2e-3;0.28459
0.338;0;0;-8.56;0;8.5968;0;0;0;0;0;0.79409;-23.364;-48;9.7864;92.806;0;0;0;9664.6;1408.1;6.1684;0.014993;NaN;1497.1;NaN;0.0086985;556738;11.093;-6.3477e-6;0.87141;-2.4985e-4;0.59343;0.15798;0.12001;NaN;NaN;NaN;NaN;NaN;NaN;NaN;NaN;0;80.9;0.0051403;84.7;37;NaN;26.702;93133;347.48;2e-3;0.28561
0.34;0;0;-8.5485;0;8.5852;0;0;0;0;0;0.79302;-23.364;-48;9.7864;92.806;0;0;0;9664.5;1408.1;6.1684;0.014993;NaN;1497.1;NaN;0.0087284;558648;11.205;-6.3882e-6;0.87099;-2.4973e-4;0.593;0.15798;0.12001;NaN;NaN;NaN;NaN;NaN;NaN;NaN;NaN;0;80.9;0.0051403;84.7;37;NaN;26.702;93133;347.48;2e-3;0.28694
0.342;0;0;-8.5369;0;8.5736;0;0;0;0;0;0.79195;-23.364;-48;9.7864;92.806;0;0;0;9664.5;1408.1;6.1684;0.014993;NaN;1497.1;NaN;0.0087582;560558;11.317;-6.4288e-6;0.87056;-2.496e-4;0.59257;0.15798;0.12001;NaN;NaN;NaN;NaN;NaN;NaN;NaN;NaN;0;80.9;0.0051403;84.7;37;NaN;26.702;93133;347.48;2e-3;0.28936
0.344;0;0;-8.5254;0;8.562;0;0;0;0;0;0.79087;-23.364;-48;9.7864;92.806;0;0;0;9664.5;1408;6.1684;0.014993;NaN;1497.1;NaN;0.008788;562468;11.429;-6.4696e-6;0.87014;-2.4948e-4;0.59215;0.15798;0.12001;NaN;NaN;NaN;NaN;NaN;NaN;NaN;NaN;0;80.9;0.0051403;84.7;37;NaN;26.702;93133;347.48;2e-3;0.29147
0.346;0;0;-8.5138;0;8.5504;0;0;0;0;0;0.7898;-23.364;-48;9.7864;92.806;0;0;0;9664.5;1408;6.1684;0.014992;NaN;1497.1;NaN;0.0088179;564378;11.541;-6.5104e-6;0.86971;-2.4936e-4;0.59173;0.15798;0.12001;NaN;NaN;NaN;NaN;NaN;NaN;NaN;NaN;0;80.9;0.0051403;84.7;37;NaN;26.702;93133;347.48;2e-3;0.29268
0.348;0;0;-8.5022;0;8.5387;0;0;0;0;0;0.78873;-23.364;-48;9.7864;92.806;0;0;0;9664.4;1408;6.1684;0.014992;NaN;1497.1;NaN;0.0088477;566288;11.653;-6.5514e-6;0.86929;-2.4924e-4;0.59131;0.15798;0.12001;NaN;NaN;NaN;NaN;NaN;NaN;NaN;NaN;0;80.9;0.0051403;84.7;37;NaN;26.702;93133;347.48;2e-3;0.29393
0.35;0;0;-8.4907;0;8.5271;0;0;0;0;0;0.78766;-23.364;-48;9.7864;92.806;0;0;0;9664.4;1408;6.1684;0.014992;NaN;1497.1;NaN;0.0088776;568198;11.766;-6.5925e-6;0.86888;-2.4912e-4;0.59089;0.15798;0.12001;NaN;NaN;NaN;NaN;NaN;NaN;NaN;NaN;0;80.9;0.0051403;84.7;37;NaN;26.702;93133;347.48;2e-3;0.29583
0.352;0;0;-8.4791;0;8.5155;0;0;0;0;0;0.78658;-23.364;-48;9.7864;92.806;0;0;0;9664.4;1408;6.1684;0.014992;NaN;1497.1;NaN;0.0088552;566767;11.878;-6.5617e-6;0.86919;-2.4921e-4;0.5912;0.15798;0.12001;NaN;NaN;NaN;NaN;NaN;NaN;NaN;NaN;0;80.9;0.0051403;84.7;37;NaN;26.702;93133;347.48;2e-3;0.29752
0.354;0;0;-8.4634;0;8.4998;0;0;0;0;0;0.78513;-23.364;-48;9.7864;92.806;0;0;0;9664.4;1407.9;6.1684;0.014992;NaN;1497.1;NaN;0.0088329;565336;12.03;-6.531e-6;0.8695;-2.493e-4;0.59152;0.15798;0.12001;NaN;NaN;NaN;NaN;NaN;NaN;NaN;NaN;0;80.9;0.0051403;84.7;37;NaN;26.702;93133;347.48;2e-3;0.29933
0.356;0;0;-8.423;0;8.4592;0;0;0;0;0;0.78138;-23.364;-48;9.7864;92.806;0;0;0;9664.3;1407.9;6.1684;0.014992;NaN;1497.1;NaN;0.0088105;563905;12.422;-6.5003e-6;0.86982;-2.4939e-4;0.59183;0.15798;0.12001;NaN;NaN;NaN;NaN;NaN;NaN;NaN;NaN;0;80.9;0.0051403;84.7;37;NaN;26.702;93133;347.48;2e-3;0.3009
0.358;0;0;-8.3785;0;8.4144;0;0;0;0;0;0.77725;-23.364;-48;9.7864;92.806;0;0;0;9664.3;1407.9;6.1683;0.014992;NaN;1497.1;NaN;0.0087881;562474;12.855;-6.4697e-6;0.87014;-2.4948e-4;0.59215;0.15798;0.12001;NaN;NaN;NaN;NaN;NaN;NaN;NaN;NaN;0;80.9;0.0051403;84.7;37;NaN;26.702;93133;347.48;2e-3;0.30246
0.36;0;0;-8.3339;0;8.3697;0;0;0;0;0;0.77311;-23.364;-48;9.7864;92.806;0;0;0;9664.3;1407.9;6.1683;0.014992;NaN;1497.1;NaN;0.0087658;561043;13.287;-6.4392e-6;0.87045;-2.4957e-4;0.59247;0.15798;0.12001;NaN;NaN;NaN;NaN;NaN;NaN;NaN;NaN;0;80.9;0.0051403;84.7;37;NaN;26.702;93133;347.48;2e-3;0.30441
0.362;0;0;-8.2894;0;8.3249;0;0;0;0;0;0.76898;-23.364;-48;9.7864;92.806;0;0;0;9664.3;1407.8;6.1683;0.014992;NaN;1497.1;NaN;0.0087434;559612;13.72;-6.4087e-6;0.87077;-2.4966e-4;0.59279;0.15798;0.12001;NaN;NaN;NaN;NaN;NaN;NaN;NaN;NaN;0;80.9;0.0051403;84.7;37;NaN;26.702;93133;347.48;2e-3;0.30643
0.364;0;0;-8.2448;0;8.2802;0;0;0;0;0;0.76485;-23.364;-48;9.7864;92.806;0;0;0;9664.2;1407.8;6.1683;0.014992;NaN;1497.1;NaN;0.0087211;558181;14.152;-6.3783e-6;0.87109;-2.4976e-4;0.5931;0.15798;0.12001;NaN;NaN;NaN;NaN;NaN;NaN;NaN;NaN;0;80.9;0.0051403;84.7;37;NaN;26.702;93133;347.48;2e-3;0.30813
0.366;0;0;-8.2002;0;8.2355;0;0;0;0;0;0.76071;-23.364;-48;9.7864;92.806;0;0;0;9664.2;1407.8;6.1683;0.014992;NaN;1497.1;NaN;0.0086987;556750;14.584;-6.348e-6;0.87141;-2.4985e-4;0.59343;0.15798;0.12001;NaN;NaN;NaN;NaN;NaN;NaN;NaN;NaN;0;80.9;0.0051403;84.7;37;NaN;26.702;93133;347.48;2e-3;0.30995
0.368;0;0;-8.1557;0;8.1907;0;0;0;0;0;0.75658;-23.364;-48;9.7864;92.806;0;0;0;9664.2;1407.7;6.1683;0.014992;NaN;1497.1;NaN;0.0086764;555320;15.017;-6.3177e-6;0.87173;-2.4994e-4;0.59375;0.15798;0.12001;NaN;NaN;NaN;NaN;NaN;NaN;NaN;NaN;0;80.9;0.0051403;84.7;37;NaN;26.702;93133;347.48;2e-3;0.31145
0.37;0;0;-8.1111;0;8.146;0;0;0;0;0;0.75245;-23.364;-48;9.7864;92.806;0;0;0;9664.2;1407.7;6.1683;0.014992;NaN;1497.1;NaN;0.008654;553889;15.449;-6.2875e-6;0.87206;-2.5003e-4;0.59407;0.15798;0.12001;NaN;NaN;NaN;NaN;NaN;NaN;NaN;NaN;0;80.9;0.0051403;84.7;37;NaN;26.702;93133;347.48;2e-3;0.31307
0.372;0;0;-8.0666;0;8.1012;0;0;0;0;0;0.74831;-23.364;-48;9.7864;92.806;0;0;0;9664.1;1407.7;6.1683;0.014992;NaN;1497.1;NaN;0.0086316;552458;15.881;-6.2574e-6;0.87238;-2.5012e-4;0.59439;0.15798;0.12001;NaN;NaN;NaN;NaN;NaN;NaN;NaN;NaN;0;80.9;0.0051403;84.7;37;NaN;26.702;93133;347.48;2e-3;0.31461
0.374;0;0;-8.022;0;8.0565;0;0;0;0;0;0.74418;-23.364;-48;9.7864;92.806;0;0;0;9664.1;1407.7;6.1683;0.014992;NaN;1497.1;NaN;0.0086093;551027;16.314;-6.2274e-6;0.87271;-2.5022e-4;0.59472;0.15798;0.12001;NaN;NaN;NaN;NaN;NaN;NaN;NaN;NaN;0;80.9;0.0051403;84.7;37;NaN;26.702;93133;347.48;2e-3;0.31604
0.376;0;0;-7.9843;0;8.0186;0;0;0;0;0;0.74068;-23.364;-48;9.7864;92.806;0;0;0;9664.1;1407.6;6.1682;0.014992;NaN;1497.1;NaN;0.0085869;549596;16.68;-6.1974e-6;0.87303;-2.5031e-4;0.59505;0.15798;0.12001;NaN;NaN;NaN;NaN;NaN;NaN;NaN;NaN;0;80.9;0.0051403;84.7;37;NaN;26.702;93133;347.48;2e-3;0.31749
0.378;0;0;-7.9535;0;7.9877;0;0;0;0;0;0.73783;-23.364;-48;9.7864;92.806;0;0;0;9664;1407.6;6.1682;0.014992;NaN;1497.1;NaN;0.0085646;548165;16.979;-6.1675e-6;0.87336;-2.5041e-4;0.59537;0.15798;0.12001;NaN;NaN;NaN;NaN;NaN;NaN;NaN;NaN;0;80.9;0.0051403;84.7;37;NaN;26.702;93133;347.48;2e-3;0.31908
0.38;0;0;-7.9227;0;7.9567;0;0;0;0;0;0.73497;-23.364;-48;9.7864;92.806;0;0;0;9664;1407.6;6.1682;0.014992;NaN;1497.1;NaN;0.0085422;546734;17.278;-6.1376e-6;0.87369;-2.505e-4;0.5957;0.15798;0.12001;NaN;NaN;NaN;NaN;NaN;NaN;NaN;NaN;0;80.9;0.0051403;84.7;37;NaN;26.702;93133;347.48;2e-3;0.32101
0.382;0;0;-7.8919;0;7.9257;0;0;0;0;0;0.73211;-23.364;-48;9.7864;92.806;0;0;0;9664;1407.5;6.1682;0.014992;NaN;1497.1;NaN;0.0085198;545303;17.577;-6.1078e-6;0.87402;-2.5059e-4;0.59603;0.15798;0.12001;NaN;NaN;NaN;NaN;NaN;NaN;NaN;NaN;0;80.9;0.0051403;84.7;37;NaN;26.702;93133;347.48;2e-3;0.32239
0.384;0;0;-7.861;0;7.8948;0;0;0;0;0;0.72925;-23.364;-48;9.7864;92.806;0;0;0;9663.9;1407.5;6.1682;0.014992;NaN;1497.1;NaN;0.0084975;543872;17.876;-6.0781e-6;0.87435;-2.5069e-4;0.59636;0.15798;0.12001;NaN;NaN;NaN;NaN;NaN;NaN;NaN;NaN;0;80.9;0.0051403;84.7;37;NaN;26.702;93133;347.48;2e-3;0.32421
0.386;0;0;-7.8302;0;7.8638;0;0;0;0;0;0.72639;-23.364;-48;9.7864;92.806;0;0;0;9663.9;1407.4;6.1682;0.014992;NaN;1497.1;NaN;0.0084751;542441;18.175;-6.0485e-6;0.87468;-2.5078e-4;0.59669;0.15798;0.12001;NaN;NaN;NaN;NaN;NaN;NaN;NaN;NaN;0;80.9;0.0051403;84.7;37;NaN;26.702;93133;347.48;2e-3;0.32545
0.388;0;0;-7.7994;0;7.8329;0;0;0;0;0;0.72353;-23.364;-48;9.7864;92.806;0;0;0;9663.9;1407.4;6.1682;0.014992;NaN;1497.1;NaN;0.0084528;541010;18.474;-6.0189e-6;0.87501;-2.5088e-4;0.59703;0.15798;0.12001;NaN;NaN;NaN;NaN;NaN;NaN;NaN;NaN;0;80.9;0.0051403;84.7;37;NaN;26.702;93133;347.48;2e-3;0.32631
0.39;0;0;-7.7685;0;7.8019;0;0;0;0;0;0.72067;-23.364;-48;9.7864;92.806;0;0;0;9663.8;1407.4;6.1682;0.014992;NaN;1497.1;NaN;0.0084304;539579;18.773;-5.9894e-6;0.87535;-2.5098e-4;0.59736;0.15798;0.12001;NaN;NaN;NaN;NaN;NaN;NaN;NaN;NaN;0;80.9;0.0051403;84.7;37;NaN;26.702;93133;347.48;2e-3;0.32711
0.392;0;0;-7.7377;0;7.7709;0;0;0;0;0;0.71781;-23.364;-48;9.7864;92.806;0;0;0;9663.8;1407.3;6.1681;0.014992;NaN;1497.1;NaN;0.0084081;538148;19.073;-5.9599e-6;0.87568;-2.5107e-4;0.5977;0.15798;0.12001;NaN;NaN;NaN;NaN;NaN;NaN;NaN;NaN;0;80.9;0.0051403;84.7;37;NaN;26.702;93133;347.48;2e-3;0.32788
0.394;0;0;-7.7069;0;7.74;0;0;0;0;0;0.71495;-23.364;-48;9.7864;92.806;0;0;0;9663.7;1407.3;6.1681;0.014992;NaN;1497.1;NaN;0.0083857;536717;19.372;-5.9305e-6;0.87602;-2.5117e-4;0.59803;0.15798;0.12001;NaN;NaN;NaN;NaN;NaN;NaN;NaN;NaN;0;80.9;0.0051403;84.7;37;NaN;26.702;93133;347.48;2e-3;0.32864
0.396;0;0;-7.6761;0;7.709;0;0;0;0;0;0.71209;-23.364;-48;9.7864;92.806;0;0;0;9663.7;1407.3;6.1681;0.014992;NaN;1497;NaN;0.0083633;535286;19.671;-5.9012e-6;0.87636;-2.5126e-4;0.59837;0.15798;0.12001;NaN;NaN;NaN;NaN;NaN;NaN;NaN;NaN;0;80.9;0.0051403;84.7;37;NaN;26.702;93133;347.48;2e-3;0.32939
0.398;0;0;-7.6378;0;7.6706;0;0;0;0;0;0.70854;-23.364;-48;9.7864;92.806;0;0;0;9663.7;1407.2;6.1681;0.014992;NaN;1497;NaN;0.008341;533855;20.042;-5.872e-6;0.87669;-2.5136e-4;0.59871;0.15798;0.12001;NaN;NaN;NaN;NaN;NaN;NaN;NaN;NaN;0;80.9;0.0051403;84.7;37;NaN;26.702;93133;347.48;2e-3;0.3302
